%  GPST                  latitude(deg) longitude(deg)  height(m)   Q  ns   sdn(m)   sde(m)   sdu(m)  sdne(m)  sdeu(m)  sdun(m) age(s)  ratio
2019/07/17 04:24:31.000   35.638955366  139.298470989   215.9722   2  10   0.7743   1.0336   2.0572   0.6802  -1.0267  -0.5565   0.50    1.4
2019/07/17 04:24:32.000   35.638959843  139.298468794   215.6140   1   7   0.0213   0.0184   0.0837  -0.0160  -0.0362   0.0382   0.50    4.6
2019/07/17 04:24:33.000   35.638962646  139.298476598   211.0418   1   4   5.6452   5.8510  28.8773  -5.7471 -12.9985  12.7677   0.50    9.9
2019/07/17 04:24:35.000   35.639007926  139.298445981   219.6960   2   4  14.0006  20.1856  17.4817 -16.7919 -18.5773  15.4855   0.50   25.7
2019/07/17 04:24:36.000   35.638983075  139.298504887   214.5979   2   7  10.4392  15.3617  12.0960 -12.6444 -13.5064  11.1131   0.50  999.9
2019/07/17 04:24:38.000   35.639033540  139.298455982   217.9624   2   8   0.6356   0.7908   2.6231  -0.4404  -1.3290   1.0276   0.50    1.0
2019/07/17 04:24:39.000   35.639045217  139.298454838   218.0750   2   8   0.5520   0.6604   2.0875  -0.3596  -1.0666   0.8426   0.50    1.0
2019/07/17 04:24:40.000   35.639057556  139.298453515   218.3580   2   8   0.4912   0.6160   1.7733  -0.3221  -0.9383   0.7170   0.50    1.1
2019/07/17 04:24:41.000   35.639069744  139.298451696   218.6847   2   9   0.4410   0.5834   1.5744  -0.3007  -0.8561   0.6350   0.50    1.1
2019/07/17 04:24:42.000   35.639081915  139.298448951   218.9048   2  10   0.4072   0.5294   1.4276  -0.2741  -0.7756   0.5791   0.50    1.5
2019/07/17 04:24:43.000   35.639094834  139.298446378   219.0770   2   8   0.3806   0.5292   1.3721  -0.2743  -0.7619   0.5473   0.50    1.2
2019/07/17 04:24:44.000   35.639107419  139.298446775   218.7679   2  10   0.3542   0.4457   1.2227  -0.2416  -0.6481   0.4951   0.50    1.0
2019/07/17 04:24:45.000   35.639118686  139.298444561   218.7369   2   8   0.3369   0.4494   1.1868  -0.2428  -0.6425   0.4750   0.50    1.1
2019/07/17 04:24:46.000   35.639130543  139.298438844   219.1034   2   9   0.3210   0.4210   1.1380  -0.2275  -0.6085   0.4506   0.50    1.0
2019/07/17 04:24:47.000   35.639141728  139.298437711   218.8048   2   8   0.3085   0.3804   1.0547  -0.2121  -0.5481   0.4218   1.00    1.1
2019/07/17 04:24:48.000   35.639153971  139.298436082   219.0091   2   9   0.2952   0.3673   1.0218  -0.2043  -0.5312   0.4035   0.50    1.2
2019/07/17 04:24:49.000   35.639166110  139.298435102   218.8249   1   5   0.0159   0.0169   0.0652  -0.0118  -0.0302   0.0262   0.50    3.1
2019/07/17 04:24:50.000   35.639179112  139.298435314   219.0068   2   8   0.2800   0.3397   0.9651  -0.1905  -0.4939   0.3783   0.50    1.1
2019/07/17 04:24:51.000   35.639191330  139.298433085   219.2912   2   8   0.2698   0.3212   0.9505  -0.1787  -0.4785   0.3694   0.50    1.6
2019/07/17 04:24:52.000   35.639204080  139.298431691   219.4302   2   5   0.2661   0.3337   0.9514  -0.1845  -0.4857   0.3719   0.50    1.2
2019/07/17 04:24:53.000   35.639244520  139.298316470   232.8066   2   4   5.4611  17.9517  23.4123  -9.8965 -20.4965  11.3024   0.50    1.2
2019/07/17 04:24:54.000   35.639229668  139.298424903   219.8052   2   5   0.2580   0.3323   0.9422  -0.1857  -0.4821   0.3705   0.50    1.1
2019/07/17 04:24:55.000   35.639241861  139.298422446   219.9591   2   5   0.2542   0.3314   0.9370  -0.1859  -0.4800   0.3693   0.50    1.2
2019/07/17 04:24:56.000   35.639254225  139.298419671   220.2150   2   5   0.2506   0.3306   0.9319  -0.1861  -0.4779   0.3680   0.50    1.4
2019/07/17 04:24:57.000   35.639266475  139.298415853   220.4884   2   5   0.2471   0.3298   0.9270  -0.1861  -0.4759   0.3667   0.50    1.4
2019/07/17 04:24:58.000   35.639270744  139.298423217   217.6189   2   4   7.3306   8.7100  27.7577  -7.9877 -15.5464  14.2614   0.50    2.0
2019/07/17 04:24:59.000   35.639289327  139.298409366   220.7307   2   5   0.2431   0.3284   0.9198  -0.1869  -0.4727   0.3670   0.50    1.4
2019/07/17 04:25:00.000   35.638485622  139.299588676  -117.4374   1   4   7.3206   8.7036  27.7608  -7.9821 -15.5439  14.2557   0.50    3.2
2019/07/17 04:25:02.000   35.639349896  139.298359121   232.6459   2   5   1.6836   1.9910   6.2799  -1.8187  -3.5246   3.2388   0.50    1.0
2019/07/17 04:25:04.000   35.639369547  139.298380835   254.5333   2   4   3.7109   3.0575  29.6306  -3.3486  -9.3212  10.4161   0.50    9.2
2019/07/17 04:25:06.000   35.639359578  139.298399208   218.8156   1   4   7.2975   8.6891  27.7714  -7.9629 -15.5339  14.2359   0.50    4.4
2019/07/17 04:25:07.000   35.639379072  139.298387225   221.8746   2   5   1.6754   1.9851   6.2723  -1.8119  -3.5173   3.2295   0.50    1.0
2019/07/17 04:25:08.000   35.639393922  139.298375758   223.8525   2   6   1.0433   1.2107   3.8579  -1.1051  -2.1436   1.9873   0.50    1.0
2019/07/17 04:25:09.000   35.639405964  139.298360323   225.6837   2   8   0.7888   0.9339   2.9035  -0.8343  -1.6240   1.4893   0.50    1.3
2019/07/17 04:25:10.000   35.639406804  139.298362096   223.0880   1   7   0.0252   0.0894   0.0925  -0.0441  -0.0873   0.0464   0.50    6.4
2019/07/17 04:25:11.000   35.639416308  139.298353622   223.1288   1   7   0.0204   0.0640   0.0728  -0.0319  -0.0637   0.0362   0.50    4.1
2019/07/17 04:25:12.000   35.639429448  139.298335998   225.0477   2   7   0.5096   0.5919   1.8550  -0.5159  -1.0183   0.9389   0.50    1.2
2019/07/17 04:25:13.000   35.639436896  139.298324914   224.9868   2   6   0.4835   0.5571   1.7430  -0.4831  -0.9529   0.8837   0.50    1.8
2019/07/17 04:25:16.000   35.639441304  139.298309005   216.3588   1   5   0.8951   0.9599   4.7047  -0.9262  -2.1248   2.0515   0.50    9.0
2019/07/17 04:25:17.000   35.639445185  139.298304785   213.6380   2   8   0.9986   0.8326   2.8214   0.4150  -1.3120   1.1113   0.50    1.1
2019/07/17 04:25:18.000   35.639447578  139.298275273   217.7205   2   9   0.7396   0.5381   2.1998  -0.1850  -0.9366   0.9996   0.50    1.2
2019/07/17 04:25:19.000   35.639451580  139.298262573   217.6118   2  10   0.6031   0.4426   1.9169  -0.2378  -0.8107   0.8545   0.50    2.6
2019/07/17 04:25:20.000   35.639445305  139.298249193   216.5536   2   7   1.1717   0.5513   2.4575  -0.6829  -1.0905   1.5579   0.50    1.0
2019/07/17 04:25:30.000   35.639501658  139.298085889   218.8525   2   8   2.6838   0.8283   8.5401   1.2946  -2.3847  -3.7066   0.50    2.2
2019/07/17 04:25:31.000   35.639466831  139.298056768   226.6881   2   6   2.4734   1.1088   7.8827   1.5092  -2.7091  -3.8071   0.50    1.8
2019/07/17 04:25:33.000   35.639461886  139.298036607   213.6092   2   5   2.2845   0.7968   9.3385   0.9174  -2.5362  -2.4348   0.50    1.4
2019/07/17 04:25:34.000   35.639465345  139.298009102   227.0533   2   7   1.6574   0.5008   4.5774   0.6418  -1.2733  -1.5624   0.50    2.2
2019/07/17 04:25:35.000   35.639454592  139.297980429   231.2534   2   8   1.5788   0.6099   3.6083   0.8528  -1.2683  -1.8626   0.50    2.4
2019/07/17 04:25:36.000   35.639450325  139.297959139   233.5069   2   5   1.4328   0.5396   3.1244   0.7473  -1.0893  -1.6417   0.50   19.6
2019/07/17 04:25:38.000   35.639465871  139.297951687   218.5043   2   5   1.2444   1.3942   5.0024  -0.8276  -2.4205   1.7274   0.50    1.1
2019/07/17 04:25:40.000   35.639457233  139.297909521   221.8867   2   6   1.6334   0.3117   1.9669   0.4465  -0.5686   0.2724   0.50    1.2
2019/07/17 04:25:42.000   35.639463769  139.297868445   223.8802   2   7   0.7970   0.4888   1.4889  -0.3700  -0.4207   0.4021   0.50    2.0
2019/07/17 04:25:43.000   35.639462013  139.297859051   224.9672   2   7   0.7358   1.1337   5.3096  -0.6930  -2.0396   1.3981   0.50    2.3
2019/07/17 04:25:44.000   35.639466175  139.297833142   224.3185   2   6   0.5731   0.3892   1.2369  -0.2775  -0.3553   0.4187   0.50    1.2
2019/07/17 04:25:45.000   35.639470250  139.297817287   224.4809   2  10   0.4963   0.3702   1.1197  -0.2428  -0.4032   0.4361   0.50    1.1
2019/07/17 04:25:46.000   35.639476931  139.297805132   224.2983   2  11   0.4120   0.3414   0.9900  -0.1840  -0.3583   0.3139   0.50    1.1
2019/07/17 04:25:47.000   35.639486103  139.297793169   224.1879   2  10   0.3511   0.3050   0.9432  -0.1104  -0.3347   0.2655   0.50    1.0
2019/07/17 04:25:48.000   35.639494846  139.297780720   224.1099   2   8   0.3334   0.3185   0.9223  -0.1290  -0.3497   0.2688   0.50    1.1
2019/07/17 04:25:49.000   35.639503754  139.297767540   224.2222   2   9   0.2998   0.2881   0.8807  -0.0735  -0.3145   0.2320   0.50    1.1
2019/07/17 04:25:51.000   35.639456951  139.297768263   213.8126   2   4  15.7181   5.8009  24.8915  -9.5427 -12.0098  19.7736   0.50    1.4
2019/07/17 04:25:52.000   35.639517434  139.297727347   223.9606   2  11   0.6021   0.3115   1.1457  -0.3187  -0.4810   0.6792   0.50    1.1
2019/07/17 04:25:53.000   35.639517037  139.297712076   223.6801   2   6   0.4693   0.2690   0.9501  -0.2074  -0.3695   0.4767   0.50    1.1
2019/07/17 04:25:54.000   35.639517184  139.297695814   223.5573   2   8   0.4040   0.2447   0.8557  -0.1477  -0.3158   0.3700   0.50    1.3
2019/07/17 04:25:55.000   35.639517529  139.297679499   223.4433   2  10   0.3596   0.2272   0.7958  -0.0954  -0.2818   0.2949   0.50    1.7
2019/07/17 04:25:56.000   35.639518687  139.297663448   223.3538   2   8   0.3328   0.2164   0.7547  -0.0567  -0.2617   0.2429   0.50    1.6
2019/07/17 04:25:57.000   35.639519785  139.297647478   223.2925   2  10   0.3103   0.2066   0.7225   0.0377  -0.2463   0.1989   0.50    1.8
2019/07/17 04:25:58.000   35.639520848  139.297631307   223.2848   2  10   0.2930   0.1986   0.6966   0.0665  -0.2351   0.1617   0.50    1.9
2019/07/17 04:25:59.000   35.639521311  139.297614935   223.2926   2  10   0.2790   0.1919   0.6747   0.0803  -0.2264   0.1283   0.50    1.9
2019/07/17 04:26:00.000   35.639522162  139.297597923   223.2693   2  10   0.2675   0.1861   0.6558   0.0886  -0.2194   0.0960   0.50    1.9
2019/07/17 04:26:01.000   35.639523864  139.297581315   223.2105   2   8   0.2621   0.1814   0.6544   0.0906  -0.2179   0.1013   0.50    1.1
2019/07/17 04:26:02.000   35.639525988  139.297564519   223.0322   1   5   0.0315   0.0221   0.1566   0.0242  -0.0480  -0.0454   0.50    9.2
2019/07/17 04:26:03.000   35.639526172  139.297547613   223.2423   2  10   0.2506   0.1747   0.6338   0.0980  -0.2100   0.0590   0.50    1.7
2019/07/17 04:26:04.000   35.639526632  139.297530748   223.2215   2   7   0.2474   0.1738   0.6265   0.1057  -0.2095  -0.0688   0.50    1.2
2019/07/17 04:26:05.000   35.639526811  139.297513674   223.2992   2  10   0.2382   0.1687   0.6081   0.1040  -0.2017  -0.0724   0.50    1.5
2019/07/17 04:26:06.000   35.639528383  139.297496592   223.2471   2  10   0.2319   0.1652   0.5955   0.1050  -0.1982  -0.0881   0.50    1.5
2019/07/17 04:26:07.000   35.639529442  139.297479519   223.2414   2   6   0.2305   0.1645   0.5951   0.1081  -0.1983  -0.0812   0.50    1.6
2019/07/17 04:26:08.000   35.639530520  139.297462516   223.3597   2   8   0.2249   0.1629   0.5773   0.1100  -0.1964  -0.1025   0.50    1.0
2019/07/17 04:26:09.000   35.639531234  139.297445631   223.3258   2   6   0.2211   0.1617   0.5676   0.1114  -0.1940  -0.1113   0.50    1.5
2019/07/17 04:26:10.000   35.639531780  139.297429079   223.3375   2   8   0.2173   0.1603   0.5584   0.1130  -0.1922  -0.1181   0.50    1.1
2019/07/17 04:26:11.000   35.639533186  139.297412814   223.3739   2   8   0.2138   0.1590   0.5498   0.1143  -0.1904  -0.1236   0.50    1.1
2019/07/17 04:26:12.000   35.639535421  139.297396561   223.3300   2  10   0.2097   0.1563   0.5416   0.1137  -0.1882  -0.1273   0.50    1.2
2019/07/17 04:26:13.000   35.639537403  139.297380945   223.2449   2   8   0.2074   0.1536   0.5408   0.1122  -0.1866  -0.1205   0.50    1.0
2019/07/17 04:26:14.000   35.639540081  139.297365654   223.3088   2   8   0.2042   0.1528   0.5313   0.1134  -0.1856  -0.1276   0.50    1.0
2019/07/17 04:26:16.000   35.639552352  139.297335219   223.2854   2   5   0.2009   0.1520   0.5281   0.1136  -0.1837  -0.1216   0.50    1.7
2019/07/17 04:26:17.000   35.639562764  139.297322969   223.1974   2   7   0.1950   0.1679   0.5226   0.1182  -0.1903  -0.1211   0.50    1.2
2019/07/17 04:26:18.000   35.639574578  139.297314112   223.2528   2  10   0.1847   0.1486   0.5132   0.1048  -0.1789  -0.1104   0.50    1.5
2019/07/17 04:26:19.000   35.639585614  139.297306516   223.2796   2  11   0.1778   0.1461   0.5064   0.1014  -0.1772  -0.1055   0.50    1.0
2019/07/17 04:26:20.000   35.639595274  139.297299882   223.3217   2  10   0.1722   0.1438   0.5017   0.0984  -0.1763  -0.1001   0.50    1.1
2019/07/17 04:26:21.000   35.639605838  139.297289875   223.3310   2   8   0.1684   0.1431   0.4991   0.0977  -0.1764  -0.1029   0.50    1.2
2019/07/17 04:26:22.000   35.639617799  139.297282031   223.3533   1   6   0.0315   0.0185   0.0637  -0.0197  -0.0291   0.0300   0.50    3.8
2019/07/17 04:26:23.000   35.639628491  139.297279024   223.2952   1   6   0.0315   0.0185   0.0637  -0.0197  -0.0291   0.0300   0.50    3.8
2019/07/17 04:26:24.000   35.639627911  139.297270656   233.9153   1   4   4.2529   1.7376  29.6462   2.7183  -7.1771 -11.2286   0.50    6.7
2019/07/17 04:26:29.000   35.639690325  139.297274802   218.9778   2   4   3.0446   1.2594   5.4533   0.7653  -1.7525   3.5227   0.50    1.4
2019/07/17 04:26:30.000   35.639729548  139.297313529   211.4964   2   5   2.9153   2.6038   4.6933   2.2647  -2.9063   0.4562   0.50    0.0
2019/07/17 04:26:31.000   35.639757840  139.297274768   212.3612   2   6  12.5153  18.2327  15.9269 -14.9822 -16.9130  13.8789   0.50    0.0
2019/07/17 04:26:32.000   35.639767245  139.297199854   217.0428   2   4  18.0897  21.8723  20.2245 -18.8632 -16.2782   8.5835   0.50    0.0
2019/07/17 04:26:33.000   35.639743576  139.297245712   215.1716   2   4   2.1957   2.7876   7.8798   2.3720  -4.3098  -3.6644   0.50  999.9
2019/07/17 04:26:38.000   35.639749189  139.297169618   207.9997   2   4   2.6265   2.8022  29.8735   1.1975  -8.6094  -5.9554   0.50    1.6
2019/07/17 04:26:39.000   35.639742007  139.297147348   218.9569   2   5   1.9686   1.5568   8.6428  -1.4984  -3.4391   3.7537   0.50    2.7
2019/07/17 04:26:40.000   35.639749934  139.297274288   199.9366   1   4   0.1053  10.7267  28.0166  -1.0440 -17.3356   1.6864   0.50   35.9
2019/07/17 04:26:41.000   35.639764608  139.297109542   226.3941   2   4   5.8657  15.8251  25.0095  -9.4581 -19.6459  11.9673   0.50   26.7
2019/07/17 04:26:51.000   35.639795409  139.296950907   219.7079   1   4   6.5962  16.2993  24.3069 -10.3688 -19.9044  12.6622   0.50   17.4
2019/07/17 04:26:52.000   35.639802174  139.296915288   225.1351   2   7   4.2402  12.2720  18.0996  -7.1355 -14.8279   8.6407   0.50    1.1
2019/07/17 04:26:53.000   35.639800263  139.296911447   224.0196   2   8   1.0170   1.0658   2.4992   0.7111  -0.8392   0.9078   0.50    1.1
2019/07/17 04:26:54.000   35.639806558  139.296901234   224.6007   2   8   0.7383   0.5952   2.1715   0.3193  -0.7069   0.8023   0.50    1.7
2019/07/17 04:26:55.000   35.639805580  139.296885494   224.0736   2   9   0.6084   0.4382   1.9356   0.1753  -0.5553   0.7521   0.50    1.1
2019/07/17 04:26:56.000   35.639807967  139.296869006   224.8889   2   8   0.4126   0.4015   1.6745   0.1281  -0.5162   0.4811   0.50    1.8
2019/07/17 04:26:57.000   35.639811989  139.296852592   225.2902   2   8   0.3435   0.3747   1.3772   0.1813  -0.4339   0.2315   0.50    2.2
2019/07/17 04:26:58.000   35.639814527  139.296838870   224.6073   2  14   0.2905   0.2953   1.1828   0.1288  -0.3633   0.0918   0.50    1.9
2019/07/17 04:26:59.000   35.639816175  139.296822739   224.4169   2   8   0.2803   0.2780   1.0991   0.1334  -0.3407  -0.0895   0.50    1.8
2019/07/17 04:27:00.000   35.639818880  139.296807940   223.9389   2  12   0.2515   0.2465   0.9702   0.1114  -0.2734  -0.0803   0.50    1.1
2019/07/17 04:27:01.000   35.639819016  139.296792177   223.9024   2  11   0.2360   0.2329   0.9328   0.1112  -0.2646  -0.1451   0.50    1.3
2019/07/17 04:27:02.000   35.639821479  139.296776981   222.6443   1   8   0.0110   0.0071   0.0487  -0.0062  -0.0093  -0.0052   0.50    4.5
2019/07/17 04:27:03.000   35.639819728  139.296760430   223.9664   2   5   0.2223   0.2041   0.8930   0.0808  -0.2357  -0.0935   0.50    2.5
2019/07/17 04:27:04.000   35.639818717  139.296743832   223.9048   2   5   0.2340   0.2033   1.0673   0.0985  -0.2851  -0.2378   0.50    1.1
2019/07/17 04:27:05.000   35.639817437  139.296728200   223.8914   2   6   0.2173   0.1905   0.8707   0.0720  -0.2229  -0.0827   0.50    1.7
2019/07/17 04:27:06.000   35.639815737  139.296712733   223.7771   2   6   0.2142   0.1832   0.8563   0.0649  -0.2116  -0.0616   0.50    2.3
2019/07/17 04:27:07.000   35.639813032  139.296697592   224.3195   2   5   0.2255   0.1840   1.0235   0.0852  -0.2608  -0.2160   0.50    2.5
2019/07/17 04:27:08.000   35.639812873  139.296703874   219.8320   1   4  22.5377  17.5237   9.2180 -19.8732  12.7096 -14.4136   0.50   62.8
2019/07/17 04:27:09.000   35.639818923  139.296670731   225.1352   2   4   3.1661   2.1058  29.7916   2.3210  -7.8393  -9.2351   0.50    1.2
2019/07/17 04:27:17.000   35.639692473  139.296646984   219.1545   1   7   0.0850   1.0264   1.1223   0.2943  -1.0730  -0.3079   0.50   21.9
2019/07/17 04:27:21.000   35.639645112  139.296644014   220.7523   2   4   2.4610   1.8779   4.5691   1.8848  -2.5727  -3.2555   0.50    1.8
2019/07/17 04:27:22.000   35.639632790  139.296649953   220.7117   1   8   0.0368   0.0199   0.0690   0.0223  -0.0309  -0.0484   0.50    4.5
2019/07/17 04:27:23.000   35.639617971  139.296627777   222.4525   2   9   0.9256   0.5732   2.0009   0.5022  -0.7700  -1.2252   0.50    1.2
2019/07/17 04:27:24.000   35.639623380  139.296616235   220.2377   2  10   0.7095   0.4583   1.5799   0.4007  -0.6304  -0.9137   0.50    1.5
2019/07/17 04:27:25.000   35.639623860  139.296602241   220.0428   2   8   0.6159   0.4043   1.4210   0.3617  -0.5776  -0.7914   0.50    1.1
2019/07/17 04:27:26.000   35.639623109  139.296586702   220.8125   2   9   0.4654   0.3588   1.1624   0.2860  -0.4723  -0.5746   0.50    2.7
2019/07/17 04:27:27.000   35.639622189  139.296570543   221.2135   1   9   0.3798   0.1955   0.8361   0.2723  -0.4037  -0.5632   0.50   16.5
2019/07/17 04:27:28.000   35.639619126  139.296556352   221.6179   2   6   0.3762   0.3147   0.9816   0.2336  -0.3926  -0.4186   0.50    1.0
2019/07/17 04:27:29.000   35.639612907  139.296543297   222.5553   2   7   0.3395   0.2833   1.0976   0.1958  -0.3887  -0.4065   0.50    1.7
2019/07/17 04:27:30.000   35.639605943  139.296532513   222.4511   2   8   0.3161   0.2660   0.8775   0.1805  -0.3335  -0.3373   0.50    1.1
2019/07/17 04:27:31.000   35.639600518  139.296522285   222.3449   2   9   0.2981   0.2491   0.8593   0.1608  -0.3167  -0.3292   0.50    1.4
2019/07/17 04:27:32.000   35.639595222  139.296517775   222.2344   2   9   0.2828   0.2355   0.8406   0.1458  -0.3032  -0.3207   0.50    1.6
2019/07/17 04:27:33.000   35.639591480  139.296513864   221.9451   2  10   0.2744   0.2240   0.8264   0.1342  -0.2908  -0.3268   0.50    1.2
2019/07/17 04:27:34.000   35.639587520  139.296511561   221.5871   2   9   0.2572   0.2147   0.7923   0.1236  -0.2777  -0.3094   0.50    1.4
2019/07/17 04:27:35.000   35.639581966  139.296506953   221.6677   2  11   0.2382   0.2028   0.7427   0.1137  -0.2631  -0.2783   0.50    1.2
2019/07/17 04:27:36.000   35.639576884  139.296498765   221.8475   2  11   0.2280   0.1956   0.7153   0.1109  -0.2547  -0.2628   0.50    1.4
2019/07/17 04:27:37.000   35.639572361  139.296487721   221.8287   2  10   0.2115   0.1848   0.6678   0.0963  -0.2358  -0.2274   0.50    1.8
2019/07/17 04:27:38.000   35.639568859  139.296475282   221.3601   2   5   0.2368   0.2685   0.7127   0.1797  -0.3274  -0.2863   0.50    1.8
2019/07/17 04:27:40.000   35.639555545  139.296463059   209.9837   1   4   1.2524   3.0571  29.8176  -1.9562  -9.5474   6.1097   0.50  147.8
2019/07/17 04:27:41.000   35.639555563  139.296440753   220.9285   2   4   0.2074   0.1822   0.6446   0.1012  -0.2339  -0.2306   0.50    1.1
2019/07/17 04:27:42.000   35.639552364  139.296437052   220.5082   2  11   0.1946   0.1711   0.6057   0.0808  -0.2027  -0.2059   0.50    1.9
2019/07/17 04:27:43.000   35.639547020  139.296437130   220.1928   2  10   0.1910   0.1859   0.5941   0.0548  -0.1640  -0.2053   0.50    1.2
2019/07/17 04:27:44.000   35.639540859  139.296437160   219.1233   1   8   0.0122   0.0130   0.0232  -0.0104   0.0008  -0.0067   0.50    3.2
2019/07/17 04:27:45.000   35.639533357  139.296436722   219.1683   2   5   0.1825   0.1647   0.5547   0.0654  -0.1799  -0.1832   0.50    1.2
2019/07/17 04:27:46.000   35.639525838  139.296436747   218.8173   2  12   0.1740   0.1531   0.5305   0.0571  -0.1630  -0.1720   0.50    1.4
2019/07/17 04:27:47.000   35.639518869  139.296437542   218.4750   2   9   0.1686   0.1468   0.5147   0.0462  -0.1518  -0.1610   0.50    1.0
2019/07/17 04:27:48.000   35.639511468  139.296438003   218.0525   2   9   0.1647   0.1430   0.4987   0.0354  -0.1381  -0.1563   0.50    1.0
2019/07/17 04:27:49.000   35.639505076  139.296437367   217.5816   2  11   0.1592   0.1396   0.4798   0.0364  -0.1309  -0.1466   0.50    1.2
2019/07/17 04:27:50.000   35.639498500  139.296436438   217.3208   2   8   0.1571   0.1401   0.4721   0.0352  -0.1281  -0.1474   0.50    1.3
2019/07/17 04:27:51.000   35.639492217  139.296434902   216.8826   2  11   0.1517   0.1342   0.4607   0.0386  -0.1266  -0.1408   0.50    1.6
2019/07/17 04:27:52.000   35.639485623  139.296433039   216.6149   2   4   0.2124   0.1377   0.4758   0.0855  -0.1429  -0.1979   0.50    1.3
2019/07/17 04:27:53.000   35.639478610  139.296429286   216.2500   2   8   0.1479   0.1314   0.4478   0.0425  -0.1223  -0.1364   0.50    1.0
2019/07/17 04:27:54.000   35.639470233  139.296424534   215.9085   2   6   0.1459   0.1288   0.4389   0.0419  -0.1173  -0.1313   0.50    1.4
2019/07/17 04:27:55.000   35.639459047  139.296415884   216.1130   2   5   0.1451   0.1287   0.4375   0.0432  -0.1203  -0.1316   0.50    1.2
2019/07/17 04:27:56.000   35.639450762  139.296407427   215.9841   2   7   0.1441   0.1262   0.4269   0.0370  -0.1137  -0.1259   0.50    1.8
2019/07/17 04:27:57.000   35.639442931  139.296396434   216.0758   2   8   0.1420   0.1238   0.4226   0.0354  -0.1114  -0.1237   0.50    1.1
2019/07/17 04:27:58.000   35.639435409  139.296388105   216.1415   2  10   0.1398   0.1220   0.4166   0.0281  -0.1092  -0.1215   0.50    1.8
2019/07/17 04:27:59.000   35.639427615  139.296376695   216.1367   2   9   0.1379   0.1206   0.4131   0.0257  -0.1088  -0.1232   0.50    1.0
2019/07/17 04:28:00.000   35.639419566  139.296366082   216.2020   2   6   0.1407   0.1196   0.4108   0.0271  -0.1085  -0.1286   0.50    2.7
2019/07/17 04:28:01.000   35.639412346  139.296355728   216.1867   2   9   0.1359   0.1182   0.4055   0.0226  -0.1075  -0.1250   0.50    1.3
2019/07/17 04:28:02.000   35.639405233  139.296344746   216.1901   2  10   0.1332   0.1166   0.4018   0.0230  -0.1071  -0.1250   0.50    1.2
2019/07/17 04:28:03.000   35.639398117  139.296333243   216.2427   2   6   0.1355   0.1158   0.4001   0.0245  -0.1070  -0.1296   0.50    1.5
2019/07/17 04:28:04.000   35.639392270  139.296322055   216.3033   2  11   0.1314   0.1135   0.3949   0.0217  -0.1061  -0.1260   0.50    1.1
2019/07/17 04:28:05.000   35.639389566  139.296306834   216.8733   1  11   0.0126   0.0069   0.0354   0.0058  -0.0115  -0.0174   0.50    3.7
2019/07/17 04:28:06.000   35.639386360  139.296293858   216.3216   2  12   0.1265   0.1094   0.3820   0.0259  -0.1054  -0.1207   0.50    1.5
2019/07/17 04:28:07.000   35.639383750  139.296279336   216.3583   2  11   0.1251   0.1076   0.3776   0.0277  -0.1060  -0.1196   0.50    1.2
2019/07/17 04:28:08.000   35.639382431  139.296264343   216.3039   2  11   0.1231   0.1055   0.3715   0.0280  -0.1046  -0.1158   0.50    2.0
2019/07/17 04:28:09.000   35.639382068  139.296249218   216.3703   2  13   0.1210   0.1035   0.3666   0.0290  -0.1045  -0.1124   0.50    1.3
2019/07/17 04:28:10.000   35.639382760  139.296234998   216.3313   2  13   0.1185   0.1017   0.3625   0.0293  -0.1059  -0.1047   0.50    1.0
2019/07/17 04:28:11.000   35.639383774  139.296221490   216.3262   2  11   0.1168   0.1010   0.3558   0.0312  -0.1047  -0.1035   0.50    1.8
2019/07/17 04:28:12.000   35.639384277  139.296207072   216.3411   2  11   0.1151   0.0994   0.3556   0.0306  -0.1043  -0.0987   0.50    1.1
2019/07/17 04:28:13.000   35.639385065  139.296192732   216.3896   2  10   0.1138   0.0983   0.3539   0.0310  -0.1061  -0.0956   0.50    1.2
2019/07/17 04:28:14.000   35.639386782  139.296178475   216.4008   2   8   0.1125   0.0978   0.3552   0.0325  -0.1080  -0.0955   0.50    1.4
2019/07/17 04:28:15.000   35.639390997  139.296164696   216.3653   2  11   0.1104   0.0969   0.3473   0.0325  -0.1058  -0.0911   0.50    1.5
2019/07/17 04:28:16.000   35.639396692  139.296152561   216.3466   2  12   0.1084   0.0962   0.3427   0.0330  -0.1051  -0.0880   0.50    1.0
2019/07/17 04:28:17.000   35.639401043  139.296140300   216.3659   2  14   0.1063   0.0948   0.3349   0.0327  -0.1040  -0.0827   0.50    1.6
2019/07/17 04:28:18.000   35.639403053  139.296126123   216.4458   2  14   0.1048   0.0932   0.3304   0.0329  -0.1030  -0.0811   0.50    1.5
2019/07/17 04:28:19.000   35.639403620  139.296111328   216.4490   2  14   0.1031   0.0915   0.3241   0.0323  -0.1008  -0.0774   0.50    1.9
2019/07/17 04:28:20.000   35.639405316  139.296096471   216.5040   2  13   0.1018   0.0908   0.3217   0.0324  -0.1006  -0.0767   0.50    1.0
2019/07/17 04:28:21.000   35.639406314  139.296081458   216.5560   2  15   0.1002   0.0888   0.3170   0.0311  -0.0995  -0.0751   0.50    2.4
2019/07/17 04:28:22.000   35.639407282  139.296066433   216.5946   2  15   0.0985   0.0878   0.3135   0.0313  -0.0993  -0.0744   0.50    1.5
2019/07/17 04:28:23.000   35.639407525  139.296051544   216.6510   2  15   0.0969   0.0865   0.3109   0.0313  -0.0992  -0.0736   0.50    1.4
2019/07/17 04:28:24.000   35.639408427  139.296036615   216.6647   2  10   0.0964   0.0867   0.3086   0.0323  -0.0990  -0.0730   0.50    1.1
2019/07/17 04:28:25.000   35.639409551  139.296021802   216.6866   2  11   0.0951   0.0863   0.3063   0.0324  -0.0985  -0.0725   0.50    1.6
2019/07/17 04:28:26.000   35.639410475  139.296006905   216.6923   2  13   0.0937   0.0859   0.3041   0.0332  -0.0980  -0.0721   0.50    1.5
2019/07/17 04:28:27.000   35.639411565  139.295992469   216.7105   2  14   0.0923   0.0845   0.3014   0.0325  -0.0970  -0.0712   0.50    1.8
2019/07/17 04:28:28.000   35.639411808  139.295978121   216.7422   2  10   0.0918   0.0839   0.2996   0.0324  -0.0970  -0.0717   0.50    1.1
2019/07/17 04:28:29.000   35.639410670  139.295964161   216.8009   2  11   0.0911   0.0836   0.2966   0.0327  -0.0962  -0.0715   0.50    1.4
2019/07/17 04:28:30.000   35.639408675  139.295950164   216.8313   2  12   0.0904   0.0828   0.2938   0.0327  -0.0957  -0.0713   0.50    2.5
2019/07/17 04:28:31.000   35.639409197  139.295935215   216.8692   2  15   0.0890   0.0820   0.2899   0.0329  -0.0954  -0.0694   0.50    2.0
2019/07/17 04:28:32.000   35.639411266  139.295924493   218.7237   1  15   0.0061   0.0065   0.0198   0.0038  -0.0083  -0.0041   0.50    3.1
2019/07/17 04:28:33.000   35.639412746  139.295908376   216.9495   2  14   0.0868   0.0806   0.2832   0.0334  -0.0946  -0.0675   0.50    2.5
2019/07/17 04:28:34.000   35.639414230  139.295894747   216.9667   2  14   0.0857   0.0800   0.2791   0.0333  -0.0936  -0.0660   0.50    2.7
2019/07/17 04:28:35.000   35.639414436  139.295881266   216.9648   2  12   0.0848   0.0796   0.2776   0.0334  -0.0937  -0.0649   0.50    2.5
2019/07/17 04:28:36.000   35.639415493  139.295870002   218.6829   1  14   0.0063   0.0051   0.0191   0.0020  -0.0053   0.0048   0.50    3.1
2019/07/17 04:28:37.000   35.639416481  139.295852196   217.0407   2  13   0.0834   0.0779   0.2717   0.0329  -0.0917  -0.0624   0.50    2.9
2019/07/17 04:28:38.000   35.639418090  139.295838075   217.0603   2  13   0.0826   0.0775   0.2694   0.0330  -0.0915  -0.0621   1.00    1.5
2019/07/17 04:28:39.000   35.639418208  139.295824237   217.0747   2   9   0.0826   0.0772   0.2745   0.0324  -0.0935  -0.0595   0.50    1.4
2019/07/17 04:28:40.000   35.639418452  139.295810455   217.0920   2  10   0.0825   0.0768   0.2677   0.0337  -0.0915  -0.0624   0.50    1.4
2019/07/17 04:28:41.000   35.639418241  139.295797070   217.2040   2   7   0.0825   0.0765   0.2721   0.0327  -0.0919  -0.0571   0.50    1.3
2019/07/17 04:28:42.000   35.639417941  139.295782765   217.1481   2  13   0.0812   0.0754   0.2641   0.0325  -0.0899  -0.0594   0.50    2.6
2019/07/17 04:28:43.000   35.639419612  139.295768282   217.2128   2  14   0.0803   0.0747   0.2605   0.0320  -0.0889  -0.0583   0.50    2.4
2019/07/17 04:28:44.000   35.639422447  139.295758519   218.7111   1  17   0.0054   0.0053   0.0189   0.0028  -0.0069  -0.0022   0.50    3.5
2019/07/17 04:28:45.000   35.639422275  139.295741423   217.2478   2  12   0.0789   0.0738   0.2567   0.0325  -0.0884  -0.0587   0.50    1.8
2019/07/17 04:28:46.000   35.639422401  139.295727720   217.3328   2  14   0.0779   0.0730   0.2534   0.0320  -0.0876  -0.0573   0.50    2.2
2019/07/17 04:28:47.000   35.639422912  139.295717159   218.7083   1  13   0.0067   0.0066   0.0329   0.0046  -0.0116  -0.0112   0.50    3.7
2019/07/17 04:28:48.000   35.639422118  139.295702823   218.7207   1  14   0.0064   0.0058   0.0268   0.0039  -0.0097  -0.0096   0.50    3.2
2019/07/17 04:28:49.000   35.639421877  139.295684833   217.3969   2  14   0.0759   0.0719   0.2481   0.0324  -0.0866  -0.0578   0.50    1.7
2019/07/17 04:28:50.000   35.639421794  139.295671510   217.4333   2  15   0.0750   0.0708   0.2451   0.0316  -0.0855  -0.0566   0.50    2.5
2019/07/17 04:28:51.000   35.639421986  139.295661413   218.7352   1  16   0.0052   0.0050   0.0180   0.0009  -0.0064  -0.0028   0.50    3.7
2019/07/17 04:28:52.000   35.639420456  139.295646858   218.7016   1  14   0.0054   0.0053   0.0214   0.0021  -0.0066  -0.0051   0.50    3.6
2019/07/17 04:28:53.000   35.639417720  139.295628338   217.5576   2  12   0.0733   0.0688   0.2382   0.0305  -0.0830  -0.0550   0.50    2.7
2019/07/17 04:28:54.000   35.639415162  139.295614290   217.5836   2  13   0.0724   0.0683   0.2355   0.0302  -0.0819  -0.0540   0.50    2.7
2019/07/17 04:28:55.000   35.639411702  139.295601020   217.5740   2  12   0.0718   0.0681   0.2332   0.0302  -0.0813  -0.0535   0.50    1.9
2019/07/17 04:28:56.000   35.639408123  139.295587045   217.5618   2   9   0.0718   0.0682   0.2312   0.0305  -0.0807  -0.0527   1.00    1.4
2019/07/17 04:28:57.000   35.639404615  139.295573292   217.6097   2  11   0.0716   0.0677   0.2303   0.0305  -0.0805  -0.0531   0.50    1.5
2019/07/17 04:28:58.000   35.639401160  139.295560789   217.5103   2  10   0.0714   0.0671   0.2280   0.0297  -0.0793  -0.0524   0.50    1.8
2019/07/17 04:28:59.000   35.639397076  139.295548848   217.4667   2   7   0.0719   0.0671   0.2306   0.0303  -0.0802  -0.0548   0.50    1.7
2019/07/17 04:29:00.000   35.639392084  139.295536444   217.5027   2   7   0.0728   0.0668   0.2293   0.0307  -0.0797  -0.0580   0.50    1.8
2019/07/17 04:29:01.000   35.639387862  139.295523367   217.4580   2   7   0.0727   0.0666   0.2283   0.0307  -0.0794  -0.0582   0.50    1.8
2019/07/17 04:29:02.000   35.639382983  139.295510996   217.5408   2   7   0.0706   0.0663   0.2233   0.0291  -0.0778  -0.0520   0.50    1.6
2019/07/17 04:29:03.000   35.639377855  139.295499123   217.5285   2   7   0.0720   0.0662   0.2244   0.0282  -0.0775  -0.0562   0.50    1.1
2019/07/17 04:29:04.000   35.639371610  139.295486811   217.5276   2  10   0.0710   0.0656   0.2232   0.0287  -0.0773  -0.0553   1.00    1.4
2019/07/17 04:29:05.000   35.639365731  139.295474698   217.5392   2  12   0.0703   0.0651   0.2215   0.0285  -0.0770  -0.0543   1.00    1.4
2019/07/17 04:29:06.000   35.639359620  139.295463479   217.5128   2  11   0.0701   0.0648   0.2208   0.0281  -0.0764  -0.0548   1.00    1.0
2019/07/17 04:29:07.000   35.639353488  139.295453337   217.5240   2  10   0.0707   0.0643   0.2205   0.0268  -0.0746  -0.0572   0.50    1.1
2019/07/17 04:29:08.000   35.639347483  139.295445278   217.4310   2  12   0.0691   0.0638   0.2160   0.0261  -0.0736  -0.0528   0.50    1.4
2019/07/17 04:29:09.000   35.639340936  139.295435143   217.4312   2  11   0.0685   0.0633   0.2155   0.0266  -0.0737  -0.0529   0.50    1.0
2019/07/17 04:29:10.000   35.639333285  139.295425304   217.4385   2  12   0.0680   0.0628   0.2136   0.0259  -0.0727  -0.0520   0.50    1.8
2019/07/17 04:29:11.000   35.639326346  139.295416414   217.4243   2  11   0.0677   0.0626   0.2121   0.0250  -0.0721  -0.0515   0.50    1.8
2019/07/17 04:29:12.000   35.639318198  139.295408158   217.4000   2   8   0.0676   0.0626   0.2139   0.0246  -0.0731  -0.0512   0.50    1.4
2019/07/17 04:29:13.000   35.639314591  139.295404012   217.3921   2   9   0.0673   0.0636   0.2142   0.0244  -0.0695  -0.0505   0.50    1.5
2019/07/17 04:29:14.000   35.639314174  139.295402677   217.3604   2   9   0.0676   0.0633   0.2129   0.0236  -0.0688  -0.0494   0.50    1.6
2019/07/17 04:29:15.000   35.639314076  139.295403727   217.3001   2  10   0.0680   0.0765   0.2151  -0.0059  -0.0494  -0.0562   0.50    1.1
2019/07/17 04:29:16.000   35.639314013  139.295404677   217.3143   2  11   0.0676   0.0756   0.2131  -0.0028  -0.0496  -0.0551   0.50    1.1
2019/07/17 04:29:17.000   35.639313926  139.295404779   217.2651   2  12   0.0660   0.0623   0.2059   0.0233  -0.0662  -0.0482   0.50    1.0
2019/07/17 04:29:18.000   35.639313735  139.295404789   217.2803   2  11   0.0657   0.0615   0.2063   0.0231  -0.0660  -0.0466   0.50    1.0
2019/07/17 04:29:19.000   35.639313650  139.295404843   217.2776   2  14   0.0652   0.0607   0.2035   0.0230  -0.0653  -0.0466   1.00    1.5
2019/07/17 04:29:20.000   35.639313574  139.295405006   217.2263   2  10   0.0650   0.0606   0.2044   0.0218  -0.0639  -0.0457   1.00    1.0
2019/07/17 04:29:21.000   35.639309936  139.295400690   217.3104   2   9   0.0647   0.0609   0.2108   0.0221  -0.0684  -0.0450   0.50    1.4
2019/07/17 04:29:22.000   35.639303095  139.295393594   217.2726   2  11   0.0646   0.0603   0.2026   0.0230  -0.0655  -0.0466   0.50    1.1
2019/07/17 04:29:23.000   35.639294608  139.295386144   217.3038   2  11   0.0644   0.0597   0.2028   0.0221  -0.0648  -0.0478   0.50    1.0
2019/07/17 04:29:24.000   35.639284723  139.295378693   217.2947   2   8   0.0642   0.0599   0.2020   0.0219  -0.0646  -0.0478   0.50    1.1
2019/07/17 04:29:25.000   35.639274969  139.295371707   217.2686   2   8   0.0639   0.0596   0.1999   0.0211  -0.0638  -0.0458   0.50    2.0
2019/07/17 04:29:26.000   35.639265097  139.295364022   217.2490   2   8   0.0638   0.0594   0.2039   0.0212  -0.0656  -0.0472   0.50    1.0
2019/07/17 04:29:27.000   35.639255835  139.295356163   217.3113   2  10   0.0636   0.0590   0.2001   0.0210  -0.0640  -0.0476   0.50    1.0
2019/07/17 04:29:28.000   35.639246508  139.295348374   217.2773   2  12   0.0631   0.0585   0.1973   0.0201  -0.0625  -0.0462   0.50    1.1
2019/07/17 04:29:29.000   35.639237078  139.295342572   217.2978   2  11   0.0629   0.0594   0.1974   0.0204  -0.0607  -0.0462   0.50    1.1
2019/07/17 04:29:30.000   35.639227063  139.295338878   217.2805   2  13   0.0625   0.0580   0.1951   0.0203  -0.0613  -0.0454   0.50    1.2
2019/07/17 04:29:31.000   35.639217069  139.295334686   217.2596   2  10   0.0623   0.0579   0.1948   0.0210  -0.0612  -0.0447   0.50    1.1
2019/07/17 04:29:32.000   35.639207422  139.295330275   217.2292   2  10   0.0621   0.0576   0.1940   0.0208  -0.0609  -0.0443   0.50    1.2
2019/07/17 04:29:33.000   35.639198108  139.295326682   217.2127   2  11   0.0619   0.0581   0.1927   0.0203  -0.0598  -0.0448   1.00    1.5
2019/07/17 04:29:34.000   35.639188637  139.295323470   217.2180   2  12   0.0616   0.0573   0.1915   0.0208  -0.0598  -0.0445   0.50    1.6
2019/07/17 04:29:35.000   35.639179695  139.295321099   217.2245   2  12   0.0613   0.0570   0.1901   0.0206  -0.0592  -0.0440   0.50    1.6
2019/07/17 04:29:36.000   35.639170866  139.295318341   217.2166   2  14   0.0609   0.0566   0.1892   0.0206  -0.0584  -0.0432   0.50    1.4
2019/07/17 04:29:37.000   35.639162439  139.295315792   217.1914   2  12   0.0606   0.0563   0.1879   0.0201  -0.0574  -0.0425   0.50    1.4
2019/07/17 04:29:38.000   35.639153828  139.295314300   217.1501   2  12   0.0603   0.0560   0.1868   0.0203  -0.0569  -0.0420   0.50    1.3
2019/07/17 04:29:39.000   35.639145247  139.295313097   217.1431   2  12   0.0601   0.0557   0.1864   0.0207  -0.0566  -0.0422   0.50    1.5
2019/07/17 04:29:40.000   35.639136075  139.295312232   217.1646   2  13   0.0597   0.0553   0.1855   0.0199  -0.0559  -0.0419   0.50    1.8
2019/07/17 04:29:41.000   35.639126791  139.295311377   217.1403   2  11   0.0595   0.0552   0.1842   0.0200  -0.0552  -0.0412   0.50    1.2
2019/07/17 04:29:42.000   35.639117349  139.295310512   217.1132   2  11   0.0592   0.0552   0.1833   0.0188  -0.0538  -0.0409   0.50    1.2
2019/07/17 04:29:43.000   35.639108270  139.295309578   217.1011   2  12   0.0590   0.0551   0.1821   0.0186  -0.0535  -0.0405   0.50    1.3
2019/07/17 04:29:44.000   35.639098810  139.295309164   217.0865   2  12   0.0587   0.0545   0.1820   0.0185  -0.0527  -0.0404   0.50    1.0
2019/07/17 04:29:45.000   35.639089407  139.295308768   217.0961   2  10   0.0592   0.0553   0.1823   0.0153  -0.0499  -0.0423   0.50    1.2
2019/07/17 04:29:46.000   35.639081543  139.295308111   217.0664   2   9   0.0593   0.0664   0.1835  -0.0080  -0.0353  -0.0439   0.50    1.0
2019/07/17 04:29:47.000   35.639076581  139.295309486   217.0908   2  12   0.0583   0.0542   0.1786   0.0160  -0.0508  -0.0394   0.50    1.5
2019/07/17 04:29:48.000   35.639072740  139.295310561   217.0611   2  12   0.0580   0.0539   0.1775   0.0153  -0.0501  -0.0388   0.50    1.5
2019/07/17 04:29:49.000   35.639068426  139.295310500   217.0412   2  11   0.0579   0.0540   0.1769   0.0143  -0.0485  -0.0386   0.50    1.5
2019/07/17 04:29:50.000   35.639062983  139.295312279   217.0526   2  11   0.0576   0.0538   0.1759   0.0137  -0.0478  -0.0381   0.50    1.4
2019/07/17 04:29:51.000   35.639055784  139.295314947   217.0342   2  12   0.0579   0.0649   0.1785  -0.0102  -0.0309  -0.0413   0.50    1.2
2019/07/17 04:29:52.000   35.639047313  139.295318603   217.0199   2  13   0.0572   0.0593   0.1761   0.0091  -0.0390  -0.0389   0.50    1.1
2019/07/17 04:29:53.000   35.639038521  139.295320238   217.0361   2  14   0.0567   0.0529   0.1732   0.0143  -0.0463  -0.0367   0.50    1.8
2019/07/17 04:29:54.000   35.639029727  139.295321918   217.0585   2  13   0.0564   0.0524   0.1730   0.0147  -0.0460  -0.0367   0.50    1.7
2019/07/17 04:29:55.000   35.639020513  139.295323938   217.0846   2  12   0.0560   0.0525   0.1716   0.0156  -0.0456  -0.0356   0.50    1.8
2019/07/17 04:29:56.000   35.639011892  139.295325910   217.0350   2  11   0.0558   0.0523   0.1708   0.0157  -0.0452  -0.0353   0.50    1.1
2019/07/17 04:29:57.000   35.639005414  139.295327849   217.0149   2  12   0.0555   0.0525   0.1702   0.0158  -0.0441  -0.0349   0.50    1.4
2019/07/17 04:29:58.000   35.639002892  139.295328803   217.0214   2  11   0.0554   0.0533   0.1698   0.0148  -0.0424  -0.0351   0.50    1.2
2019/07/17 04:29:59.000   35.639002784  139.295329151   217.0191   2  12   0.0551   0.0522   0.1688   0.0158  -0.0431  -0.0343   0.50    1.5
2019/07/17 04:30:00.000   35.639002604  139.295329656   217.0587   2   8   0.0552   0.0533   0.1692   0.0148  -0.0413  -0.0334   0.50    1.1
2019/07/17 04:30:01.000   35.639000139  139.295330914   216.9985   2   9   0.0565   0.0667   0.1711  -0.0181  -0.0220  -0.0382   0.50    1.0
2019/07/17 04:30:02.000   35.638993006  139.295334848   217.0233   2   9   0.0557   0.0597   0.1691  -0.0096  -0.0326  -0.0352   0.50    1.0
2019/07/17 04:30:03.000   35.638983605  139.295339227   217.0090   2   8   0.0554   0.0571   0.1681  -0.0058  -0.0349  -0.0339   0.50    1.2
2019/07/17 04:30:04.000   35.638973927  139.295344261   217.0182   2  10   0.0547   0.0550   0.1669   0.0078  -0.0347  -0.0339   0.50    1.0
2019/07/17 04:30:05.000   35.638964451  139.295348861   216.9500   2  10   0.0549   0.0628   0.1685  -0.0124  -0.0187  -0.0363   0.50    1.0
2019/07/17 04:30:06.000   35.638955100  139.295354707   216.9666   2  11   0.0543   0.0570   0.1660   0.0050  -0.0309  -0.0336   0.50    1.0
2019/07/17 04:30:07.000   35.638945372  139.295362327   216.9861   2  11   0.0545   0.0627   0.1671  -0.0124  -0.0168  -0.0357   0.50    1.0
2019/07/17 04:30:08.000   35.638935855  139.295369772   216.9277   2  11   0.0539   0.0573   0.1650   0.0035  -0.0284  -0.0333   0.50    1.0
2019/07/17 04:30:09.000   35.638927133  139.295376173   216.9566   2  11   0.0536   0.0554   0.1639   0.0081  -0.0310  -0.0323   0.50    1.0
2019/07/17 04:30:10.000   35.638918331  139.295382200   216.9665   2  12   0.0533   0.0543   0.1630   0.0099  -0.0320  -0.0317   0.50    1.1
2019/07/17 04:30:11.000   35.638909765  139.295388041   216.9205   2  13   0.0532   0.0523   0.1628   0.0115  -0.0337  -0.0318   0.50    1.1
2019/07/17 04:30:12.000   35.638902331  139.295397207   216.9282   2  13   0.0533   0.0513   0.1618   0.0118  -0.0350  -0.0282   0.50    1.4
2019/07/17 04:30:13.000   35.638896050  139.295408108   216.9418   2  11   0.0530   0.0509   0.1612   0.0119  -0.0348  -0.0277   0.50    1.5
2019/07/17 04:30:14.000   35.638889680  139.295418839   216.9643   2  12   0.0528   0.0504   0.1606   0.0121  -0.0346  -0.0270   0.50    1.6
2019/07/17 04:30:15.000   35.638881966  139.295428169   216.9545   2  14   0.0521   0.0500   0.1593   0.0124  -0.0336  -0.0282   0.50    1.4
2019/07/17 04:30:16.000   35.638873976  139.295436143   216.9519   2  13   0.0520   0.0496   0.1586   0.0127  -0.0334  -0.0276   0.50    1.5
2019/07/17 04:30:17.000   35.638866377  139.295444833   216.9527   2  13   0.0516   0.0494   0.1580   0.0124  -0.0328  -0.0274   0.50    1.4
2019/07/17 04:30:18.000   35.638859841  139.295455198   216.9731   2  11   0.0516   0.0491   0.1580   0.0132  -0.0330  -0.0259   0.50    1.7
2019/07/17 04:30:19.000   35.638853231  139.295465941   216.9405   2  10   0.0514   0.0493   0.1578   0.0135  -0.0319  -0.0253   0.50    1.5
2019/07/17 04:30:20.000   35.638847468  139.295476549   216.9669   2  13   0.0511   0.0486   0.1563   0.0131  -0.0322  -0.0259   0.50    1.7
2019/07/17 04:30:21.000   35.638841690  139.295487849   216.9605   2  13   0.0508   0.0484   0.1557   0.0137  -0.0320  -0.0256   0.50    1.4
2019/07/17 04:30:22.000   35.638835712  139.295500631   216.9382   2  13   0.0506   0.0482   0.1552   0.0139  -0.0317  -0.0253   0.50    1.5
2019/07/17 04:30:23.000   35.638829799  139.295512261   216.9347   2  12   0.0507   0.0481   0.1546   0.0145  -0.0313  -0.0247   0.50    1.7
2019/07/17 04:30:24.000   35.638824172  139.295524813   216.9323   2  11   0.0505   0.0483   0.1543   0.0145  -0.0303  -0.0245   0.50    1.4
2019/07/17 04:30:25.000   35.638818209  139.295537219   216.9256   2  13   0.0502   0.0477   0.1535   0.0142  -0.0308  -0.0245   0.50    1.5
2019/07/17 04:30:26.000   35.638812563  139.295549808   216.8878   2  11   0.0501   0.0475   0.1537   0.0144  -0.0307  -0.0231   0.50    2.1
2019/07/17 04:30:27.000   35.638807682  139.295562621   216.9152   2  12   0.0499   0.0473   0.1533   0.0144  -0.0303  -0.0225   0.50    1.9
2019/07/17 04:30:28.000   35.638804048  139.295575589   216.8865   2  11   0.0499   0.0470   0.1533   0.0146  -0.0295  -0.0203   0.50    1.3
2019/07/17 04:30:29.000   35.638801003  139.295588844   216.8781   2  11   0.0498   0.0467   0.1525   0.0142  -0.0295  -0.0204   0.50    1.6
2019/07/17 04:30:30.000   35.638797918  139.295602386   216.8564   2  10   0.0499   0.0467   0.1521   0.0149  -0.0292  -0.0196   0.50    1.4
2019/07/17 04:30:31.000   35.638796226  139.295615443   216.8301   2  10   0.0511   0.0464   0.1531   0.0154  -0.0280  -0.0104   0.50    1.3
2019/07/17 04:30:32.000   35.638794432  139.295629229   216.8623   2  12   0.0497   0.0463   0.1512   0.0150  -0.0285  -0.0187   0.50    1.4
2019/07/17 04:30:33.000   35.638791663  139.295642954   216.8249   2  10   0.0495   0.0461   0.1508   0.0151  -0.0283  -0.0182   0.50    1.4
2019/07/17 04:30:34.000   35.638788738  139.295656316   216.8268   2   8   0.0566   0.0469   0.1552   0.0215  -0.0214   0.0274   0.50    1.1
2019/07/17 04:30:35.000   35.638786883  139.295670096   216.8466   2  11   0.0504   0.0457   0.1507   0.0155  -0.0275  -0.0093   0.50    1.4
2019/07/17 04:30:36.000   35.638785923  139.295683838   216.8531   2  11   0.0492   0.0456   0.1489   0.0152  -0.0283  -0.0168   0.50    1.5
2019/07/17 04:30:37.000   35.638785362  139.295697946   216.8666   2  10   0.0492   0.0454   0.1489   0.0155  -0.0277  -0.0156   0.50    1.5
2019/07/17 04:30:38.000   35.638784987  139.295711395   216.8656   2  11   0.0490   0.0452   0.1479   0.0154  -0.0281  -0.0158   0.50    1.6
2019/07/17 04:30:39.000   35.638784497  139.295725202   216.8485   2  11   0.0489   0.0450   0.1474   0.0156  -0.0281  -0.0152   0.50    1.5
2019/07/17 04:30:40.000   35.638782859  139.295738696   216.8277   2  10   0.0488   0.0450   0.1476   0.0159  -0.0273  -0.0137   0.50    1.5
2019/07/17 04:30:41.000   35.638781025  139.295751682   216.8309   2  11   0.0486   0.0447   0.1466   0.0158  -0.0278  -0.0140   0.50    1.5
2019/07/17 04:30:42.000   35.638780003  139.295764728   216.8368   2  11   0.0485   0.0445   0.1461   0.0160  -0.0278  -0.0133   0.50    1.6
2019/07/17 04:30:43.000   35.638780039  139.295778385   216.7976   2  11   0.0484   0.0443   0.1456   0.0162  -0.0277  -0.0126   0.50    1.6
2019/07/17 04:30:44.000   35.638780326  139.295792414   216.7890   2  11   0.0482   0.0442   0.1452   0.0162  -0.0276  -0.0120   0.50    1.6
2019/07/17 04:30:45.000   35.638779528  139.295806130   216.7747   2  11   0.0481   0.0441   0.1447   0.0164  -0.0276  -0.0112   0.50    1.6
2019/07/17 04:30:46.000   35.638778496  139.295818968   216.7555   2  10   0.0481   0.0440   0.1450   0.0167  -0.0267  -0.0092   0.50    1.6
2019/07/17 04:30:47.000   35.638777137  139.295832412   216.7578   2  12   0.0524   0.0440   0.1460   0.0196  -0.0247   0.0208   0.50    1.2
2019/07/17 04:30:48.000   35.638776055  139.295845486   216.7895   2  12   0.0476   0.0434   0.1434   0.0164  -0.0268  -0.0079   0.50    1.7
2019/07/17 04:30:49.000   35.638776164  139.295858291   216.7518   2  11   0.0492   0.0433   0.1441   0.0172  -0.0257   0.0141   0.50    1.7
2019/07/17 04:30:50.000   35.638778396  139.295871700   216.7151   2  12   0.0489   0.0431   0.1435   0.0170  -0.0256   0.0143   0.50    1.1
2019/07/17 04:30:51.000   35.638780344  139.295885993   216.7542   2  12   0.0485   0.0428   0.1428   0.0168  -0.0256   0.0131   0.50    1.3
2019/07/17 04:30:52.000   35.638780090  139.295899963   216.7911   2  12   0.0473   0.0427   0.1415   0.0165  -0.0262   0.0031   0.50    1.1
2019/07/17 04:30:53.000   35.638777618  139.295913446   216.7737   2  10   0.0473   0.0427   0.1418   0.0168  -0.0253   0.0072   0.50    1.6
2019/07/17 04:30:54.000   35.638774845  139.295925739   216.7968   2  11   0.0470   0.0425   0.1413   0.0166  -0.0255   0.0059   0.50    1.2
2019/07/17 04:30:55.000   35.638773971  139.295937860   216.7949   2  10   0.0470   0.0424   0.1412   0.0169  -0.0249   0.0086   0.50    1.7
2019/07/17 04:30:56.000   35.638775548  139.295950764   216.8032   2  11   0.0468   0.0421   0.1406   0.0167  -0.0252   0.0069   0.50    1.3
2019/07/17 04:30:57.000   35.638777924  139.295964073   216.8091   2  11   0.0468   0.0420   0.1399   0.0169  -0.0254   0.0081   0.50    1.6
2019/07/17 04:30:58.000   35.638778373  139.295977882   216.8002   2  10   0.0467   0.0420   0.1402   0.0172  -0.0244   0.0103   0.50    1.5
2019/07/17 04:30:59.000   35.638777149  139.295991809   216.7950   2  10   0.0466   0.0419   0.1399   0.0172  -0.0241   0.0108   0.50    1.5
2019/07/17 04:31:00.000   35.638774908  139.296005582   216.7721   2  11   0.0465   0.0418   0.1396   0.0172  -0.0238   0.0115   0.50    1.4
2019/07/17 04:31:01.000   35.638770799  139.296018754   216.7409   2  11   0.0463   0.0417   0.1393   0.0173  -0.0236   0.0119   0.50    1.2
2019/07/17 04:31:02.000   35.638767441  139.296030688   216.7813   2  10   0.0462   0.0416   0.1390   0.0174  -0.0233   0.0123   0.50    1.5
2019/07/17 04:31:03.000   35.638765267  139.296043241   216.7719   2  10   0.0461   0.0414   0.1387   0.0175  -0.0231   0.0127   0.50    1.3
2019/07/17 04:31:04.000   35.638763830  139.296055830   216.7923   2  12   0.0460   0.0413   0.1384   0.0175  -0.0228   0.0127   0.50    1.2
2019/07/17 04:31:05.000   35.638761845  139.296068526   216.8062   2  10   0.0458   0.0412   0.1381   0.0176  -0.0226   0.0132   0.50    1.5
2019/07/17 04:31:06.000   35.638761351  139.296082037   216.8170   2  10   0.0457   0.0410   0.1378   0.0177  -0.0223   0.0135   0.50    1.6
2019/07/17 04:31:07.000   35.638761749  139.296093410   216.8383   2  11   0.0456   0.0409   0.1375   0.0177  -0.0222   0.0138   0.50    1.1
2019/07/17 04:31:08.000   35.638765486  139.296104404   216.8196   2  13   0.0485   0.0408   0.1384   0.0194  -0.0205   0.0232   0.50    1.3
2019/07/17 04:31:09.000   35.638769476  139.296116938   216.8326   2  12   0.0453   0.0404   0.1362   0.0174  -0.0227   0.0133   0.50    1.2
2019/07/17 04:31:10.000   35.638771365  139.296126936   216.8327   2  11   0.0473   0.0404   0.1386   0.0185  -0.0225   0.0159   0.50    1.7
2019/07/17 04:31:11.000   35.638774804  139.296132534   216.8549   2  12   0.0451   0.0408   0.1375   0.0174  -0.0252   0.0142   1.00    1.0
2019/07/17 04:31:12.000   35.638778246  139.296130426   216.8393   2  12   0.0450   0.0412   0.1380   0.0177  -0.0277   0.0122   0.50    1.1
2019/07/17 04:31:13.000   35.638777398  139.296120637   216.8657   2   9   0.0448   0.0419   0.1372   0.0183  -0.0211   0.0159   0.50    1.2
2019/07/17 04:31:14.000   35.638773657  139.296109091   216.8816   2   7   0.0501   0.0411   0.1438   0.0138  -0.0283   0.0354   0.50    1.4
2019/07/17 04:31:15.000   35.638769358  139.296096457   216.7935   2   8   0.0466   0.0413   0.1438   0.0174  -0.0296   0.0223   0.50    1.6
2019/07/17 04:31:16.000   35.638766596  139.296082450   216.7908   2   8   0.0463   0.0412   0.1424   0.0175  -0.0295   0.0200   0.50    1.2
2019/07/17 04:31:17.000   35.638765676  139.296068000   216.7567   2  12   0.0443   0.0402   0.1349   0.0170  -0.0245   0.0130   0.50    1.0
2019/07/17 04:31:18.000   35.638766707  139.296052825   216.7781   2  13   0.0443   0.0408   0.1375   0.0174  -0.0285   0.0115   0.50    1.3
2019/07/17 04:31:19.000   35.638767621  139.296040612   216.7489   2  13   0.0441   0.0405   0.1367   0.0174  -0.0281   0.0086   0.50    1.0
2019/07/17 04:31:20.000   35.638767804  139.296026543   216.7717   2  13   0.0452   0.0404   0.1374   0.0175  -0.0283  -0.0056   0.50    1.1
2019/07/17 04:31:21.000   35.638768328  139.296012082   216.7846   2  13   0.0441   0.0402   0.1398   0.0175  -0.0293  -0.0087   0.50    1.2
2019/07/17 04:31:22.000   35.638768724  139.295996995   216.7690   2  12   0.0445   0.0402   0.1365   0.0175  -0.0284   0.0079   0.50    1.3
2019/07/17 04:31:23.000   35.638770415  139.295982397   216.7633   2  14   0.0437   0.0401   0.1360   0.0173  -0.0285   0.0056   0.50    1.1
2019/07/17 04:31:24.000   35.638771478  139.295968298   216.7658   2  12   0.0436   0.0399   0.1355   0.0171  -0.0286   0.0062   0.50    1.2
2019/07/17 04:31:25.000   35.638772048  139.295952788   216.7785   2  12   0.0435   0.0399   0.1348   0.0172  -0.0283   0.0076   0.50    1.1
2019/07/17 04:31:26.000   35.638772390  139.295937715   216.7834   2  14   0.0433   0.0396   0.1342   0.0170  -0.0282   0.0079   0.50    1.3
2019/07/17 04:31:27.000   35.638774131  139.295922340   216.8152   2  12   0.0432   0.0396   0.1345   0.0169  -0.0287   0.0104   0.50    1.1
2019/07/17 04:31:28.000   35.638775318  139.295907974   216.8166   2   9   0.0443   0.0397   0.1358   0.0166  -0.0288   0.0181   0.50    1.4
2019/07/17 04:31:29.000   35.638775330  139.295893214   216.8342   2   9   0.0441   0.0395   0.1353   0.0164  -0.0291   0.0179   0.50    1.3
2019/07/17 04:31:30.000   35.638775649  139.295878475   216.8720   2  11   0.0429   0.0396   0.1337   0.0169  -0.0287   0.0088   0.50    1.2
2019/07/17 04:31:31.000   35.638776122  139.295863126   216.8535   2  10   0.0429   0.0394   0.1335   0.0164  -0.0288   0.0118   0.50    1.4
2019/07/17 04:31:32.000   35.638776930  139.295847226   216.8771   2   9   0.0430   0.0394   0.1332   0.0168  -0.0286   0.0132   0.50    1.2
2019/07/17 04:31:33.000   35.638777342  139.295831391   216.9239   2  10   0.0427   0.0394   0.1345   0.0168  -0.0295   0.0115   0.50    1.1
2019/07/17 04:31:34.000   35.638777264  139.295815311   216.9110   2  10   0.0427   0.0392   0.1342   0.0164  -0.0301   0.0113   0.50    1.3
2019/07/17 04:31:35.000   35.638777356  139.295798828   216.8487   2   9   0.0441   0.0401   0.1370   0.0142  -0.0334   0.0222   0.50    1.3
2019/07/17 04:31:36.000   35.638778355  139.295784154   216.8827   2   8   0.0429   0.0395   0.1340   0.0168  -0.0305   0.0145   0.50    1.0
2019/07/17 04:31:37.000   35.638779155  139.295768910   216.8827   2  12   0.0436   0.0389   0.1332   0.0155  -0.0301   0.0192   0.50    1.0
2019/07/17 04:31:38.000   35.638779926  139.295753968   216.9478   2  12   0.0423   0.0388   0.1312   0.0162  -0.0294   0.0128   0.50    1.1
2019/07/17 04:31:39.000   35.638779853  139.295738588   216.5084   1   9   0.0069   0.0076   0.0217   0.0039  -0.0068  -0.0047   0.50    5.0
2019/07/17 04:31:40.000   35.638781439  139.295722954   216.9186   2  11   0.0421   0.0394   0.1303   0.0169  -0.0289   0.0124   0.50    1.3
2019/07/17 04:31:41.000   35.638782945  139.295706835   216.8955   2  11   0.0421   0.0391   0.1320   0.0164  -0.0311   0.0131   0.50    1.1
2019/07/17 04:31:42.000   35.638784523  139.295690707   216.9355   2   4   0.0423   0.0396   0.1323   0.0170  -0.0279   0.0126   0.50    2.5
2019/07/17 04:31:43.000   35.638785621  139.295674643   216.4501   1  12   0.0063   0.0086   0.0273   0.0047  -0.0104  -0.0068   0.50    3.7
2019/07/17 04:31:44.000   35.638788091  139.295659011   216.8787   2  13   0.0417   0.0390   0.1318   0.0167  -0.0310   0.0079   0.50    1.6
2019/07/17 04:31:45.000   35.638789592  139.295642909   216.9176   2  13   0.0417   0.0385   0.1295   0.0162  -0.0294   0.0133   0.50    1.1
2019/07/17 04:31:46.000   35.638791774  139.295627109   216.9298   2   9   0.0416   0.0391   0.1291   0.0167  -0.0290   0.0136   0.50    1.3
2019/07/17 04:31:47.000   35.638794764  139.295611043   216.9313   2  11   0.0415   0.0390   0.1288   0.0157  -0.0287   0.0137   0.50    1.3
2019/07/17 04:31:48.000   35.638798150  139.295594857   216.9433   2  12   0.0413   0.0385   0.1289   0.0163  -0.0293   0.0119   0.50    1.1
2019/07/17 04:31:49.000   35.638802938  139.295579744   216.9477   2  11   0.0412   0.0383   0.1294   0.0159  -0.0301   0.0132   0.50    1.4
2019/07/17 04:31:50.000   35.638807541  139.295565150   216.9518   2  10   0.0411   0.0381   0.1332   0.0158  -0.0304   0.0124   0.50    1.4
2019/07/17 04:31:51.000   35.638812198  139.295549926   216.9178   2   9   0.0410   0.0383   0.1358   0.0160  -0.0328   0.0106   0.50    1.1
2019/07/17 04:31:52.000   35.638818454  139.295534990   216.9091   2   7   0.0410   0.0392   0.1373   0.0167  -0.0312   0.0122   0.50    1.4
2019/07/17 04:31:53.000   35.638825442  139.295520231   216.9249   2   7   0.0410   0.0391   0.1373   0.0167  -0.0312   0.0121   0.50    1.3
2019/07/17 04:31:54.000   35.638832430  139.295506360   217.0334   2   8   0.0408   0.0385   0.1358   0.0162  -0.0332   0.0101   0.50    1.0
2019/07/17 04:31:55.000   35.638839289  139.295492045   216.9724   2   7   0.0407   0.0388   0.1370   0.0165  -0.0309   0.0123   0.50    1.2
2019/07/17 04:31:56.000   35.638847351  139.295477962   216.9140   2   7   0.0408   0.0394   0.1365   0.0153  -0.0351   0.0118   0.50    1.4
2019/07/17 04:31:57.000   35.638855519  139.295464703   216.9406   2   7   0.0407   0.0394   0.1365   0.0153  -0.0352   0.0117   0.50    1.4
2019/07/17 04:31:58.000   35.638864278  139.295451184   216.9103   2   9   0.0406   0.0390   0.1369   0.0165  -0.0315   0.0120   0.50    1.1
2019/07/17 04:31:59.000   35.638873867  139.295437397   216.9070   2   6   0.0405   0.0500   0.1370   0.0152  -0.0288   0.0116   0.50    1.1
2019/07/17 04:32:00.000   35.638884304  139.295424052   216.9372   2   8   0.0404   0.0384   0.1357   0.0160  -0.0335   0.0097   0.50    1.4
2019/07/17 04:32:01.000   35.638895377  139.295411858   216.9543   2   6   0.0409   0.0391   0.1444   0.0172  -0.0288   0.0212   0.50    1.3
2019/07/17 04:32:02.000   35.638906311  139.295400888   216.8622   2   5   0.0470   0.0941   0.1867  -0.0412  -0.1047   0.0566   0.50    1.0
2019/07/17 04:32:03.000   35.638918255  139.295388349   216.9653   2   6   0.0423   0.0425   0.1573   0.0043  -0.0503   0.0338   0.50    1.7
2019/07/17 04:32:04.000   35.638929087  139.295378546   216.8398   2   5   0.0469   0.0939   0.1866  -0.0411  -0.1046   0.0565   0.50    1.0
2019/07/17 04:32:05.000   35.638937017  139.295373042   215.1369   2   4   5.6532   8.0402  28.3444  -6.7416 -15.0959  12.6582   0.50    2.0
2019/07/17 04:32:06.000   35.638955051  139.295352866   218.5802   2   5   0.5544   0.7913   2.7859  -0.6601  -1.4815   1.2404   0.50    1.0
2019/07/17 04:32:07.000   35.638967073  139.295345388   218.5082   2   4   0.5514   0.7788   2.7765  -0.6531  -1.4673   1.2350   0.50    1.0
2019/07/17 04:32:08.000   35.638977871  139.295339304   217.9318   2   6   0.3298   0.4697   1.6605  -0.3904  -0.8792   0.7362   0.50    1.0
2019/07/17 04:32:09.000   35.638989567  139.295333928   217.7018   2   5   0.3006   0.4156   1.5164  -0.3493  -0.7881   0.6708   0.50    1.1
2019/07/17 04:32:10.000   35.639000817  139.295328976   217.3295   2   5   1.6831   2.3970   8.4711  -2.0078  -4.5051   3.7752   0.50    1.0
2019/07/17 04:32:11.000   35.639014052  139.295323609   217.5813   2   5   1.1984   1.7047   6.0362  -1.4283  -3.2063   2.6885   0.50    1.0
2019/07/17 04:32:14.000   35.639041560  139.295328401   211.0956   2   4   1.4254   1.2231   7.1207  -1.3139  -2.9381   3.1849   0.50    1.0
2019/07/17 04:32:15.000   35.639075834  139.295302478   223.0479   2   7   0.5679   0.5271   2.7956  -0.2053  -0.4791   1.2577   0.50    1.1
2019/07/17 04:32:17.000   35.639095678  139.295296542   219.9261   2   6   1.0712   0.4669   5.3040  -0.4747  -1.0628   2.3824   0.50    1.1
2019/07/17 04:32:18.000   35.639117731  139.295294843   225.1415   2   5   0.4475   0.3541   2.2173  -0.3778  -0.8450   0.9933   0.50    1.9
2019/07/17 04:32:19.000   35.639131228  139.295295186   225.7464   2   8   0.3066   0.2383   1.5072  -0.2406  -0.5388   0.6757   0.50    1.0
2019/07/17 04:32:20.000   35.639148612  139.295291723   228.3238   2   4   0.2602   0.2013   1.2708  -0.1939  -0.4347   0.5702   0.50    1.1
2019/07/17 04:32:21.000   35.639159774  139.295294218   227.0671   2   6   0.2336   0.1817   1.1386  -0.1679  -0.3775   0.5104   0.50    1.1
2019/07/17 04:32:22.000   35.639170387  139.295300119   225.8284   2   6   0.2128   0.1660   1.0357  -0.1470  -0.3314   0.4637   0.50    1.1
2019/07/17 04:32:23.000   35.639181422  139.295305135   224.9831   2   5   0.1975   0.1546   0.9595  -0.1312  -0.2966   0.4292   0.50    1.1
2019/07/17 04:32:25.000   35.639206407  139.295313017   224.3270   2   5   0.1861   0.1427   0.8989  -0.1176  -0.2662   0.4024   0.50    1.2
2019/07/17 04:32:26.000   35.639218380  139.295317812   223.8746   2   9   0.1761   0.1346   0.8493  -0.1069  -0.2427   0.3799   0.50    1.1
2019/07/17 04:32:27.000   35.639230222  139.295323582   223.6041   2   7   0.1722   0.1310   0.8284  -0.1027  -0.2332   0.3706   0.50    2.8
2019/07/17 04:32:28.000   35.639241230  139.295331614   223.3657   2   9   0.1668   0.1255   0.8004  -0.0968  -0.2204   0.3581   1.00    1.7
