% program   : RTKPOST ver.2.4.3 b32
% inp file  : C:\Users\kapi\Desktop\新しいフォルダー\log_rover.obs
% inp file  : C:\Users\kapi\Desktop\新しいフォルダー\log_base_station.obs
% inp file  : C:\Users\kapi\Desktop\新しいフォルダー\log_base_station.nav
% obs start : 2019/09/12 04:56:54.8 GPST (week2070 363414.8s)
% obs end   : 2019/09/12 05:01:44.8 GPST (week2070 363704.8s)
% pos mode  : kinematic
% freqs     : L1+L2
% solution  : forward
% elev mask : 45.0 deg
% dynamics  : off
% tidecorr  : off
% ionos opt : broadcast
% tropo opt : saastamoinen
% ephemeris : broadcast
% navi sys  : gps glonass galileo qzss beidou
% amb res   : fix and hold
% amb glo   : on
% val thres : 3.0
% antenna1  :                       ( 0.0000  0.0000  0.0000)
% antenna2  :                       ( 0.0000  0.0000  0.0000)
% ref pos   : 35.639624713  139.300023650   249.5950
%
% (lat/lon/height=WGS84/ellipsoidal,Q=1:fix,2:float,3:sbas,4:dgps,5:single,6:ppp,ns=# of satellites)
%  GPST                  latitude(deg) longitude(deg)  height(m)   Q  ns   sdn(m)   sde(m)   sdu(m)  sdne(m)  sdeu(m)  sdun(m) age(s)  ratio
2019/09/12 04:56:54.800   35.639391286  139.296339215   218.9521   1  16   0.0056   0.0064   0.0228   0.0013  -0.0063  -0.0022  -0.21    3.4
2019/09/12 04:56:55.000   35.639391295  139.296339237   218.9607   1  16   0.0056   0.0064   0.0227   0.0015  -0.0063  -0.0023  -0.01    3.7
2019/09/12 04:56:55.200   35.639391276  139.296339233   218.9629   1  16   0.0056   0.0063   0.0227   0.0011  -0.0063  -0.0023  -0.01    3.7
2019/09/12 04:56:55.400   35.639391298  139.296339244   218.9523   1  16   0.0055   0.0063   0.0227   0.0013  -0.0063  -0.0023  -0.01    4.2
2019/09/12 04:56:55.600   35.639391299  139.296339222   218.9638   1  16   0.0056   0.0064   0.0228   0.0011  -0.0063  -0.0022  -0.01    4.4
2019/09/12 04:56:55.800   35.639391329  139.296339211   218.9560   1  16   0.0055   0.0063   0.0227   0.0014  -0.0063  -0.0021  -0.01    4.5
2019/09/12 04:56:56.000   35.639391325  139.296339144   218.9525   1  16   0.0057   0.0064   0.0227   0.0011  -0.0063  -0.0022  -0.01    4.6
2019/09/12 04:56:56.200   35.639391332  139.296339166   218.9524   1  16   0.0055   0.0064   0.0227   0.0011  -0.0063  -0.0022  -0.01    4.7
2019/09/12 04:56:56.400   35.639391319  139.296339192   218.9507   1  16   0.0057   0.0063   0.0227   0.0012  -0.0063  -0.0024  -0.01    4.7
2019/09/12 04:56:56.600   35.639391314  139.296339166   218.9547   1  16   0.0054   0.0063   0.0228   0.0014  -0.0063  -0.0022  -0.01    4.8
2019/09/12 04:56:56.800   35.639391303  139.296339205   218.9559   1  16   0.0055   0.0063   0.0228   0.0017  -0.0063  -0.0022  -0.01  114.7
2019/09/12 04:56:57.000   35.639391300  139.296339203   218.9560   1  16   0.0055   0.0064   0.0227   0.0015  -0.0063  -0.0023  -0.01  165.6
2019/09/12 04:56:57.200   35.639391290  139.296339193   218.9588   1  16   0.0056   0.0063   0.0227   0.0016  -0.0063  -0.0022  -0.01  217.0
2019/09/12 04:56:57.400   35.639391313  139.296339195   218.9584   1  16   0.0057   0.0064   0.0227   0.0013  -0.0063  -0.0022  -0.01  261.0
2019/09/12 04:56:57.600   35.639391305  139.296339226   218.9603   1  16   0.0058   0.0063   0.0227   0.0013  -0.0063  -0.0023  -0.01  305.8
2019/09/12 04:56:57.800   35.639391310  139.296339253   218.9536   1  16   0.0056   0.0064   0.0227   0.0014  -0.0063  -0.0020  -0.01  350.9
2019/09/12 04:56:58.000   35.639391329  139.296339284   218.9575   1  16   0.0056   0.0064   0.0227   0.0015  -0.0063  -0.0023  -0.01  382.2
2019/09/12 04:56:58.200   35.639391336  139.296339304   218.9633   1  16   0.0055   0.0063   0.0227   0.0015  -0.0063  -0.0022  -0.01  421.2
2019/09/12 04:56:58.400   35.639391360  139.296339323   218.9504   1  16   0.0054   0.0063   0.0228   0.0016  -0.0063  -0.0022  -0.01  447.9
2019/09/12 04:56:58.600   35.639391362  139.296339348   218.9566   1  16   0.0056   0.0064   0.0228   0.0009  -0.0063  -0.0022  -0.01  478.9
2019/09/12 04:56:58.800   35.639391367  139.296339313   218.9617   1  16   0.0057   0.0063   0.0227   0.0009  -0.0064  -0.0022  -0.01  507.1
2019/09/12 04:56:59.000   35.639391369  139.296339345   218.9535   1  16   0.0055   0.0065   0.0227   0.0012  -0.0063  -0.0020  -0.01  542.7
2019/09/12 04:56:59.200   35.639391396  139.296339350   218.9510   1  16   0.0056   0.0063   0.0227   0.0017  -0.0063  -0.0022  -0.01  569.2
2019/09/12 04:56:59.400   35.639391393  139.296339334   218.9639   1  16   0.0055   0.0064   0.0227   0.0015  -0.0063  -0.0023  -0.01  600.9
2019/09/12 04:56:59.600   35.639391378  139.296339320   218.9527   1  16   0.0054   0.0064   0.0227   0.0015  -0.0063  -0.0023  -0.01  624.0
2019/09/12 04:56:59.800   35.639391374  139.296339303   218.9585   1  16   0.0057   0.0063   0.0227   0.0015  -0.0064  -0.0023  -0.01  636.8
2019/09/12 04:57:00.000   35.639391369  139.296339301   218.9534   1  16   0.0055   0.0063   0.0227   0.0014  -0.0063  -0.0022  -0.01  656.0
2019/09/12 04:57:00.200   35.639391337  139.296339278   218.9532   1  16   0.0057   0.0064   0.0227   0.0016  -0.0063  -0.0022  -0.01  673.7
2019/09/12 04:57:00.400   35.639391323  139.296339283   218.9470   1  16   0.0056   0.0063   0.0227   0.0015  -0.0063  -0.0022  -0.01  686.8
2019/09/12 04:57:00.600   35.639391311  139.296339251   218.9564   1  16   0.0055   0.0063   0.0227   0.0014  -0.0063  -0.0023  -0.01  702.4
2019/09/12 04:57:00.800   35.639391292  139.296339272   218.9508   1  16   0.0053   0.0063   0.0227   0.0013  -0.0063  -0.0022  -0.01  719.8
2019/09/12 04:57:01.000   35.639391280  139.296339271   218.9503   1  16   0.0056   0.0063   0.0227   0.0016  -0.0063  -0.0023  -0.01  735.7
2019/09/12 04:57:01.200   35.639391272  139.296339282   218.9514   1  16   0.0055   0.0063   0.0228   0.0015  -0.0063  -0.0023  -0.01  751.9
2019/09/12 04:57:01.400   35.639391271  139.296339228   218.9563   1  16   0.0054   0.0064   0.0228   0.0015  -0.0063  -0.0023  -0.01  757.9
2019/09/12 04:57:01.600   35.639391248  139.296339274   218.9568   1  16   0.0055   0.0062   0.0227   0.0016  -0.0063  -0.0023  -0.01  776.4
2019/09/12 04:57:01.800   35.639391248  139.296339244   218.9530   1  16   0.0057   0.0064   0.0227   0.0016  -0.0063  -0.0022  -0.01  787.6
2019/09/12 04:57:02.000   35.639391229  139.296339232   218.9483   1  16   0.0056   0.0064   0.0227   0.0015  -0.0062  -0.0023  -0.01  801.8
2019/09/12 04:57:02.200   35.639391228  139.296339224   218.9525   1  16   0.0057   0.0062   0.0227   0.0015  -0.0064  -0.0022  -0.01  809.0
2019/09/12 04:57:02.400   35.639391288  139.296339231   218.9591   1  16   0.0057   0.0064   0.0227   0.0010  -0.0063  -0.0025  -0.01  819.0
2019/09/12 04:57:02.600   35.639391272  139.296339184   218.9639   1  16   0.0056   0.0064   0.0227   0.0013  -0.0063  -0.0023  -0.01  827.9
2019/09/12 04:57:02.800   35.639391249  139.296339158   218.9668   1  16   0.0056   0.0062   0.0227   0.0013  -0.0063  -0.0023  -0.01  843.1
2019/09/12 04:57:03.000   35.639391223  139.296339144   218.9610   1  16   0.0057   0.0064   0.0227   0.0011  -0.0063  -0.0023  -0.01  854.2
2019/09/12 04:57:03.200   35.639391185  139.296339013   218.9458   1  16   0.0056   0.0064   0.0227   0.0013  -0.0063  -0.0023  -0.01  859.1
2019/09/12 04:57:03.400   35.639391239  139.296338475   218.9541   1  16   0.0056   0.0064   0.0227   0.0015  -0.0063  -0.0024  -0.01  869.1
2019/09/12 04:57:03.600   35.639391225  139.296338369   218.9409   1  16   0.0057   0.0063   0.0227   0.0008  -0.0063  -0.0022  -0.01  880.9
2019/09/12 04:57:03.800   35.639391438  139.296338463   218.9479   1  16   0.0057   0.0062   0.0227   0.0015  -0.0063  -0.0024  -0.01  891.8
2019/09/12 04:57:04.000   35.639391711  139.296339110   218.9925   1  16   0.0056   0.0063   0.0227   0.0011  -0.0063  -0.0022  -0.01  920.4
2019/09/12 04:57:04.200   35.639392013  139.296339381   218.9920   1  14   0.0063   0.0064   0.0303  -0.0007  -0.0077   0.0072  -0.01  948.1
2019/09/12 04:57:04.400   35.639392235  139.296339427   218.9806   1  14   0.0063   0.0064   0.0303  -0.0012  -0.0077   0.0072  -0.01  988.3
2019/09/12 04:57:04.600   35.639392256  139.296339538   218.9820   1  14   0.0064   0.0065   0.0303  -0.0013  -0.0077   0.0072  -0.01  999.9
2019/09/12 04:57:04.800   35.639392322  139.296339633   218.9800   1  14   0.0062   0.0064   0.0303  -0.0013  -0.0077   0.0072  -0.01  999.9
2019/09/12 04:57:05.000   35.639392363  139.296339786   218.9768   1  14   0.0063   0.0063   0.0303   0.0004  -0.0077   0.0072  -0.01  999.9
2019/09/12 04:57:05.200   35.639392361  139.296339753   218.9865   1  14   0.0062   0.0064   0.0303  -0.0007  -0.0077   0.0072  -0.01  999.9
2019/09/12 04:57:05.400   35.639392518  139.296339577   218.9846   1  14   0.0062   0.0063   0.0303  -0.0008  -0.0077   0.0072  -0.01  999.9
2019/09/12 04:57:05.600   35.639392622  139.296339228   218.9835   1  14   0.0062   0.0065   0.0303  -0.0014  -0.0077   0.0072  -0.01  999.9
2019/09/12 04:57:05.800   35.639392675  139.296338708   218.9912   1  14   0.0063   0.0064   0.0303  -0.0006  -0.0077   0.0072  -0.01  999.9
2019/09/12 04:57:06.000   35.639392143  139.296338092   218.9924   1  16   0.0057   0.0063   0.0227   0.0011  -0.0063  -0.0023  -0.01    4.9
2019/09/12 04:57:06.200   35.639391671  139.296337895   218.9828   1  16   0.0058   0.0064   0.0227   0.0014  -0.0063  -0.0023  -0.01   29.0
2019/09/12 04:57:06.400   35.639391641  139.296337714   218.9531   1  16   0.0055   0.0064   0.0227   0.0014  -0.0062  -0.0023  -0.01   52.6
2019/09/12 04:57:06.600   35.639391799  139.296337319   218.9366   1  16   0.0057   0.0062   0.0227   0.0018  -0.0062  -0.0025  -0.01   75.9
2019/09/12 04:57:06.800   35.639391865  139.296336930   218.9391   1  16   0.0056   0.0063   0.0227   0.0010  -0.0063  -0.0023  -0.01   99.0
2019/09/12 04:57:07.000   35.639391849  139.296336669   218.9358   1  16   0.0055   0.0064   0.0227   0.0012  -0.0063  -0.0022  -0.01  122.5
2019/09/12 04:57:07.200   35.639391906  139.296336446   218.9326   1  16   0.0057   0.0063   0.0227   0.0008  -0.0063  -0.0021  -0.01  145.8
2019/09/12 04:57:07.400   35.639391936  139.296336289   218.9171   1  16   0.0057   0.0064   0.0227   0.0012  -0.0063  -0.0024  -0.01  170.6
2019/09/12 04:57:07.600   35.639391634  139.296336386   218.8934   1  16   0.0055   0.0064   0.0227   0.0017  -0.0063  -0.0021  -0.01  193.7
2019/09/12 04:57:07.800   35.639391001  139.296336825   218.8770   1  16   0.0055   0.0062   0.0227   0.0015  -0.0062  -0.0023  -0.01  215.0
2019/09/12 04:57:08.000   35.639390658  139.296337348   218.8127   1  16   0.0056   0.0064   0.0227   0.0013  -0.0062  -0.0022  -0.01  233.9
2019/09/12 04:57:08.200   35.639390671  139.296337482   218.8252   1  16   0.0057   0.0064   0.0227   0.0012  -0.0063  -0.0023  -0.01  252.9
2019/09/12 04:57:08.400   35.639390867  139.296337281   218.9010   1  16   0.0056   0.0064   0.0227   0.0011  -0.0062  -0.0024  -0.01  274.4
2019/09/12 04:57:08.600   35.639391248  139.296337201   218.9099   1  16   0.0055   0.0065   0.0227   0.0010  -0.0062  -0.0023  -0.01  298.4
2019/09/12 04:57:08.800   35.639391548  139.296336789   218.9337   1  16   0.0054   0.0063   0.0227   0.0016  -0.0063  -0.0023  -0.01  320.1
2019/09/12 04:57:09.000   35.639391805  139.296336547   218.9339   1  16   0.0057   0.0064   0.0227   0.0011  -0.0062  -0.0022  -0.01  341.3
2019/09/12 04:57:09.200   35.639391928  139.296336358   218.9252   1  16   0.0057   0.0064   0.0227   0.0009  -0.0063  -0.0024  -0.01  362.9
2019/09/12 04:57:09.400   35.639391852  139.296336410   218.9376   1  16   0.0056   0.0064   0.0227   0.0013  -0.0063  -0.0023  -0.01  382.1
2019/09/12 04:57:09.600   35.639391489  139.296336658   218.9327   1  16   0.0055   0.0063   0.0227   0.0016  -0.0062  -0.0024  -0.01  404.4
2019/09/12 04:57:09.800   35.639391079  139.296337608   218.9550   1  16   0.0055   0.0064   0.0227   0.0013  -0.0062  -0.0022  -0.01  417.5
2019/09/12 04:57:10.000   35.639390891  139.296338135   218.9716   1  16   0.0058   0.0063   0.0227   0.0008  -0.0062  -0.0023  -0.01  430.3
2019/09/12 04:57:10.200   35.639390719  139.296338356   218.9770   1  16   0.0056   0.0064   0.0227   0.0013  -0.0063  -0.0022  -0.01  446.4
2019/09/12 04:57:10.400   35.639390557  139.296338337   218.9631   1  16   0.0056   0.0064   0.0227   0.0015  -0.0062  -0.0024  -0.01  462.1
2019/09/12 04:57:10.600   35.639390456  139.296338379   218.9611   1  16   0.0057   0.0063   0.0227   0.0017  -0.0063  -0.0021  -0.01  474.0
2019/09/12 04:57:10.800   35.639390359  139.296338353   218.9623   1  16   0.0054   0.0063   0.0227   0.0015  -0.0062  -0.0023  -0.01  486.7
2019/09/12 04:57:11.000   35.639390307  139.296338378   218.9623   1  16   0.0056   0.0063   0.0227   0.0016  -0.0062  -0.0023  -0.01  496.7
2019/09/12 04:57:11.200   35.639390267  139.296338430   218.9632   1  16   0.0053   0.0063   0.0227   0.0013  -0.0062  -0.0024  -0.01  507.4
2019/09/12 04:57:11.400   35.639390189  139.296338501   218.9622   1  16   0.0057   0.0063   0.0227   0.0007  -0.0062  -0.0024  -0.01  520.5
2019/09/12 04:57:11.600   35.639390124  139.296338539   218.9571   1  16   0.0055   0.0064   0.0227   0.0012  -0.0062  -0.0022  -0.01  529.2
2019/09/12 04:57:11.800   35.639390078  139.296338576   218.9697   1  16   0.0055   0.0063   0.0227   0.0018  -0.0063  -0.0022  -0.01  537.0
2019/09/12 04:57:12.000   35.639390041  139.296338566   218.9690   1  16   0.0056   0.0063   0.0227   0.0013  -0.0062  -0.0023  -0.01  545.7
2019/09/12 04:57:12.200   35.639389984  139.296338563   218.9682   1  16   0.0055   0.0063   0.0227   0.0015  -0.0062  -0.0021  -0.01  553.7
2019/09/12 04:57:12.400   35.639389886  139.296338512   218.9702   1  16   0.0054   0.0062   0.0227   0.0011  -0.0063  -0.0024  -0.01  563.6
2019/09/12 04:57:12.600   35.639389802  139.296338506   218.9637   1  16   0.0056   0.0063   0.0227   0.0015  -0.0063  -0.0023  -0.01  571.8
2019/09/12 04:57:12.800   35.639389729  139.296338406   218.9547   1  16   0.0056   0.0063   0.0227   0.0014  -0.0062  -0.0024  -0.01  579.9
2019/09/12 04:57:13.000   35.639389709  139.296338210   218.9531   1  16   0.0056   0.0064   0.0227   0.0009  -0.0062  -0.0023  -0.01  588.3
2019/09/12 04:57:13.200   35.639389631  139.296338062   218.9400   1  16   0.0055   0.0063   0.0227   0.0018  -0.0062  -0.0023  -0.01  601.0
2019/09/12 04:57:13.400   35.639389498  139.296338025   218.9331   1  16   0.0055   0.0063   0.0227   0.0014  -0.0062  -0.0023  -0.01  616.1
2019/09/12 04:57:13.600   35.639389512  139.296337829   218.9213   1  16   0.0057   0.0063   0.0227   0.0016  -0.0062  -0.0024  -0.01  628.9
2019/09/12 04:57:13.800   35.639389725  139.296337572   218.9265   1  16   0.0055   0.0063   0.0227   0.0011  -0.0062  -0.0023  -0.01  646.9
2019/09/12 04:57:14.000   35.639389988  139.296337494   218.9285   1  16   0.0055   0.0063   0.0227   0.0011  -0.0062  -0.0024  -0.01  667.5
2019/09/12 04:57:14.200   35.639390164  139.296337449   218.9430   1  16   0.0055   0.0064   0.0227   0.0013  -0.0062  -0.0023  -0.01  683.0
2019/09/12 04:57:14.400   35.639390082  139.296337539   218.9278   1  16   0.0057   0.0063   0.0227   0.0016  -0.0062  -0.0024  -0.01  700.0
2019/09/12 04:57:14.600   35.639389794  139.296337768   218.9292   1  16   0.0054   0.0064   0.0227   0.0013  -0.0062  -0.0022  -0.01  716.4
2019/09/12 04:57:14.800   35.639389694  139.296337933   218.9242   1  16   0.0055   0.0063   0.0227   0.0016  -0.0062  -0.0022  -0.01  733.1
2019/09/12 04:57:15.000   35.639389687  139.296337952   218.9291   1  16   0.0055   0.0064   0.0227   0.0010  -0.0062  -0.0022  -0.01  751.4
2019/09/12 04:57:15.200   35.639389672  139.296337971   218.9238   1  16   0.0055   0.0063   0.0227   0.0010  -0.0062  -0.0023  -0.01  770.0
2019/09/12 04:57:15.400   35.639389715  139.296337993   218.9255   1  16   0.0054   0.0064   0.0227   0.0014  -0.0062  -0.0023  -0.01  787.6
2019/09/12 04:57:15.600   35.639389886  139.296337862   218.9308   1  16   0.0057   0.0063   0.0227   0.0015  -0.0062  -0.0024  -0.01  806.1
2019/09/12 04:57:15.800   35.639390149  139.296337785   218.9436   1  16   0.0054   0.0063   0.0227   0.0016  -0.0062  -0.0023  -0.01  818.4
2019/09/12 04:57:16.000   35.639390282  139.296337790   218.9670   1  16   0.0056   0.0064   0.0227   0.0016  -0.0062  -0.0022  -0.01  834.8
2019/09/12 04:57:16.200   35.639390329  139.296337789   218.9631   1  16   0.0058   0.0063   0.0227   0.0005  -0.0062  -0.0023  -0.01  850.3
2019/09/12 04:57:16.400   35.639389586  139.296338040   218.9278   1  16   0.0057   0.0063   0.0227   0.0013  -0.0062  -0.0024  -0.01  866.8
2019/09/12 04:57:16.600   35.639388942  139.296338516   218.8679   1  16   0.0057   0.0063   0.0227   0.0011  -0.0062  -0.0025  -0.01  874.7
2019/09/12 04:57:16.800   35.639388810  139.296338731   218.8702   1  16   0.0054   0.0063   0.0227   0.0012  -0.0062  -0.0024  -0.01  889.7
2019/09/12 04:57:17.000   35.639388981  139.296338631   218.8850   1  16   0.0058   0.0063   0.0227   0.0014  -0.0062  -0.0023  -0.01  907.5
2019/09/12 04:57:17.200   35.639389270  139.296338269   218.9269   1  16   0.0054   0.0064   0.0227   0.0009  -0.0062  -0.0021  -0.01  926.4
2019/09/12 04:57:17.400   35.639389475  139.296337985   218.9329   1  16   0.0058   0.0063   0.0227   0.0015  -0.0062  -0.0024  -0.01  934.8
2019/09/12 04:57:17.600   35.639389686  139.296337749   218.9514   1  16   0.0054   0.0063   0.0227   0.0018  -0.0062  -0.0026  -0.01  938.0
2019/09/12 04:57:17.800   35.639390010  139.296337448   218.9579   1  16   0.0055   0.0064   0.0227   0.0014  -0.0062  -0.0023  -0.01  945.3
2019/09/12 04:57:18.000   35.639390440  139.296336854   218.9375   1  16   0.0054   0.0064   0.0227   0.0016  -0.0062  -0.0022  -0.01  954.9
2019/09/12 04:57:18.200   35.639390917  139.296336175   218.9020   1  16   0.0056   0.0064   0.0227   0.0010  -0.0062  -0.0022  -0.01  972.6
2019/09/12 04:57:18.400   35.639391355  139.296335586   218.9065   1  16   0.0055   0.0063   0.0227   0.0017  -0.0062  -0.0023  -0.01  994.9
2019/09/12 04:57:18.600   35.639391703  139.296335087   218.8955   1  16   0.0056   0.0064   0.0227   0.0012  -0.0062  -0.0025  -0.01  999.9
2019/09/12 04:57:18.800   35.639392002  139.296334793   218.8994   1  16   0.0054   0.0063   0.0227   0.0019  -0.0062  -0.0024  -0.01  999.9
2019/09/12 04:57:19.000   35.639392205  139.296334685   218.8897   1  16   0.0056   0.0063   0.0227   0.0013  -0.0062  -0.0022  -0.01  999.9
2019/09/12 04:57:19.200   35.639392196  139.296334739   218.9002   1  16   0.0056   0.0063   0.0227   0.0010  -0.0062  -0.0022  -0.01  999.9
2019/09/12 04:57:19.400   35.639392154  139.296334837   218.8969   1  16   0.0058   0.0064   0.0227   0.0010  -0.0062  -0.0025  -0.01  999.9
2019/09/12 04:57:19.600   35.639392107  139.296334949   218.9007   1  16   0.0055   0.0063   0.0227   0.0017  -0.0062  -0.0023  -0.01  999.9
2019/09/12 04:57:19.800   35.639392012  139.296335031   218.8918   1  16   0.0056   0.0064   0.0227   0.0010  -0.0062  -0.0023  -0.01  999.9
2019/09/12 04:57:20.000   35.639391910  139.296335099   218.8972   1  16   0.0054   0.0063   0.0227   0.0015  -0.0062  -0.0024  -0.01  999.9
2019/09/12 04:57:20.200   35.639391785  139.296335191   218.8937   1  16   0.0054   0.0063   0.0227   0.0011  -0.0062  -0.0024  -0.01  999.9
2019/09/12 04:57:20.400   35.639391704  139.296335238   218.8983   1  16   0.0057   0.0064   0.0227   0.0015  -0.0062  -0.0023  -0.01  999.9
2019/09/12 04:57:20.600   35.639391665  139.296335292   218.8993   1  16   0.0057   0.0064   0.0227   0.0013  -0.0062  -0.0022  -0.01  999.9
2019/09/12 04:57:20.800   35.639391671  139.296335347   218.8970   1  16   0.0056   0.0063   0.0227   0.0008  -0.0062  -0.0024  -0.01  999.9
2019/09/12 04:57:21.000   35.639391659  139.296335341   218.9018   1  16   0.0055   0.0064   0.0227   0.0016  -0.0061  -0.0025  -0.01  999.9
2019/09/12 04:57:21.200   35.639391625  139.296335379   218.9079   1  16   0.0055   0.0065   0.0227   0.0012  -0.0061  -0.0022  -0.01  999.9
2019/09/12 04:57:21.400   35.639391529  139.296335443   218.9000   1  16   0.0054   0.0062   0.0227   0.0018  -0.0062  -0.0023  -0.01  999.9
2019/09/12 04:57:21.600   35.639391485  139.296335465   218.9022   1  16   0.0055   0.0064   0.0227   0.0012  -0.0061  -0.0025  -0.01  999.9
2019/09/12 04:57:21.800   35.639391436  139.296335484   218.9050   1  16   0.0057   0.0065   0.0227   0.0008  -0.0062  -0.0023  -0.01  999.9
2019/09/12 04:57:22.000   35.639391420  139.296335563   218.9141   1  16   0.0056   0.0064   0.0227   0.0013  -0.0062  -0.0024  -0.01  999.9
2019/09/12 04:57:22.200   35.639391421  139.296335587   218.9009   1  16   0.0055   0.0064   0.0227   0.0016  -0.0062  -0.0022  -0.01  999.9
2019/09/12 04:57:22.400   35.639391419  139.296335612   218.9085   1  16   0.0055   0.0062   0.0227   0.0014  -0.0062  -0.0023  -0.01  999.9
2019/09/12 04:57:22.600   35.639391405  139.296335637   218.9069   1  16   0.0055   0.0064   0.0227   0.0014  -0.0062  -0.0023  -0.01  999.9
2019/09/12 04:57:22.800   35.639391445  139.296335666   218.9067   1  16   0.0055   0.0062   0.0227   0.0013  -0.0062  -0.0025  -0.01  999.9
2019/09/12 04:57:23.000   35.639391533  139.296335590   218.9160   1  16   0.0055   0.0064   0.0227   0.0010  -0.0061  -0.0024  -0.01  999.9
2019/09/12 04:57:23.200   35.639391672  139.296335430   218.9071   1  16   0.0055   0.0063   0.0227   0.0016  -0.0062  -0.0025  -0.01  999.9
2019/09/12 04:57:23.400   35.639391786  139.296335335   218.8942   1  16   0.0055   0.0063   0.0227   0.0014  -0.0062  -0.0024  -0.01  999.9
2019/09/12 04:57:23.600   35.639391939  139.296335238   218.9116   1  16   0.0056   0.0063   0.0227   0.0016  -0.0062  -0.0021  -0.01  999.9
2019/09/12 04:57:23.800   35.639392083  139.296335119   218.9195   1  16   0.0054   0.0064   0.0227   0.0011  -0.0061  -0.0024  -0.01  999.9
2019/09/12 04:57:24.000   35.639392213  139.296334892   218.9147   1  16   0.0055   0.0063   0.0227   0.0013  -0.0061  -0.0024  -0.01  999.9
2019/09/12 04:57:24.200   35.639392246  139.296334706   218.9174   1  16   0.0052   0.0063   0.0227   0.0016  -0.0061  -0.0024  -0.01  999.9
2019/09/12 04:57:24.400   35.639392251  139.296334512   218.9082   1  16   0.0055   0.0064   0.0227   0.0013  -0.0062  -0.0022  -0.01  999.9
2019/09/12 04:57:24.600   35.639392192  139.296334331   218.9022   1  16   0.0056   0.0063   0.0227   0.0010  -0.0062  -0.0024  -0.01  999.9
2019/09/12 04:57:24.800   35.639392102  139.296334076   218.9085   1  16   0.0057   0.0063   0.0227   0.0016  -0.0061  -0.0025  -0.01  999.9
2019/09/12 04:57:25.000   35.639391960  139.296333486   218.9122   1  16   0.0057   0.0064   0.0227   0.0013  -0.0061  -0.0025  -0.01  999.9
2019/09/12 04:57:25.200   35.639391546  139.296332385   218.8994   1  16   0.0055   0.0064   0.0227   0.0013  -0.0062  -0.0023  -0.01  999.9
2019/09/12 04:57:25.400   35.639390971  139.296330841   218.9327   1  16   0.0055   0.0063   0.0227   0.0020  -0.0062  -0.0024  -0.01  999.9
2019/09/12 04:57:25.600   35.639390862  139.296329376   218.9435   1  16   0.0055   0.0062   0.0227   0.0016  -0.0061  -0.0024  -0.01  999.9
2019/09/12 04:57:25.800   35.639391126  139.296327539   218.9288   1  16   0.0056   0.0064   0.0227   0.0011  -0.0061  -0.0024  -0.01  999.9
2019/09/12 04:57:26.000   35.639391517  139.296324832   218.9459   1  16   0.0055   0.0064   0.0227   0.0012  -0.0061  -0.0022  -0.01  999.9
2019/09/12 04:57:26.200   35.639391271  139.296322848   218.9589   1  16   0.0053   0.0063   0.0227   0.0012  -0.0062  -0.0021  -0.01  999.9
2019/09/12 04:57:26.400   35.639390675  139.296320550   218.9133   1  16   0.0055   0.0063   0.0227   0.0017  -0.0062  -0.0024  -0.01  999.9
2019/09/12 04:57:26.600   35.639390384  139.296317977   218.9725   1  16   0.0054   0.0063   0.0227   0.0015  -0.0061  -0.0022  -0.01  999.9
2019/09/12 04:57:26.800   35.639390484  139.296315642   218.9433   1  16   0.0056   0.0064   0.0227   0.0015  -0.0062  -0.0024  -0.01  999.9
2019/09/12 04:57:27.000   35.639390917  139.296312900   218.9262   1  16   0.0055   0.0063   0.0227   0.0017  -0.0062  -0.0024  -0.01  999.9
2019/09/12 04:57:27.200   35.639390918  139.296310472   218.9840   1  16   0.0057   0.0063   0.0227   0.0013  -0.0062  -0.0023  -0.01  999.9
2019/09/12 04:57:27.400   35.639390891  139.296308121   218.9668   1  16   0.0055   0.0065   0.0227   0.0017  -0.0061  -0.0024  -0.01  999.9
2019/09/12 04:57:27.600   35.639390709  139.296305547   218.9812   1  16   0.0056   0.0064   0.0227   0.0015  -0.0061  -0.0024  -0.01  999.9
2019/09/12 04:57:27.800   35.639391055  139.296303451   219.0278   1  16   0.0054   0.0065   0.0227   0.0015  -0.0061  -0.0024  -0.01  999.9
2019/09/12 04:57:28.000   35.639391550  139.296301142   218.9819   1  16   0.0056   0.0063   0.0227   0.0015  -0.0061  -0.0025  -0.01  999.9
2019/09/12 04:57:28.200   35.639391938  139.296298458   219.0357   1  15   0.0055   0.0068   0.0245   0.0024  -0.0039   0.0024  -0.01  999.9
2019/09/12 04:57:28.400   35.639391811  139.296295967   218.9957   1  15   0.0060   0.0062   0.0236  -0.0001  -0.0059  -0.0041  -0.01  999.9
2019/09/12 04:57:28.600   35.639391663  139.296293360   219.0053   1  15   0.0058   0.0068   0.0245   0.0021  -0.0039   0.0023  -0.01  999.9
2019/09/12 04:57:28.800   35.639391931  139.296290473   219.0502   1  15   0.0059   0.0065   0.0236   0.0002  -0.0058  -0.0042  -0.01  999.9
2019/09/12 04:57:29.000   35.639392267  139.296286690   218.9705   1  16   0.0057   0.0063   0.0227   0.0012  -0.0062  -0.0024  -0.01  999.9
2019/09/12 04:57:29.200   35.639392615  139.296283128   218.9992   1  16   0.0056   0.0063   0.0227   0.0010  -0.0061  -0.0025  -0.01  999.9
2019/09/12 04:57:29.400   35.639392380  139.296280534   218.9824   1  16   0.0055   0.0062   0.0227   0.0016  -0.0061  -0.0024  -0.01  999.9
2019/09/12 04:57:29.600   35.639392126  139.296277590   218.9678   1  16   0.0055   0.0063   0.0227   0.0014  -0.0061  -0.0025  -0.01  999.9
2019/09/12 04:57:29.800   35.639392310  139.296275193   219.0229   1  16   0.0055   0.0063   0.0227   0.0012  -0.0061  -0.0022  -0.01  999.9
2019/09/12 04:57:30.000   35.639392500  139.296272621   218.9903   1  16   0.0055   0.0064   0.0227   0.0011  -0.0061  -0.0024  -0.01  999.9
2019/09/12 04:57:30.200   35.639392776  139.296269793   219.0141   1  16   0.0056   0.0064   0.0227   0.0007  -0.0061  -0.0025  -0.01  999.9
2019/09/12 04:57:30.400   35.639392473  139.296267090   219.0158   1  16   0.0055   0.0063   0.0227   0.0016  -0.0061  -0.0025  -0.01  999.9
2019/09/12 04:57:30.600   35.639392070  139.296263881   218.9882   1  16   0.0055   0.0063   0.0227   0.0014  -0.0062  -0.0023  -0.01  999.9
2019/09/12 04:57:30.800   35.639392103  139.296261066   219.0204   1  16   0.0057   0.0063   0.0227   0.0016  -0.0061  -0.0026  -0.01  999.9
2019/09/12 04:57:31.000   35.639392187  139.296258299   218.9725   1  16   0.0055   0.0062   0.0227   0.0017  -0.0061  -0.0023  -0.01  999.9
2019/09/12 04:57:31.200   35.639392447  139.296255222   218.9964   1  16   0.0057   0.0062   0.0227   0.0013  -0.0061  -0.0024  -0.01  999.9
2019/09/12 04:57:31.400   35.639392292  139.296252626   219.0179   1  16   0.0057   0.0064   0.0227   0.0004  -0.0062  -0.0023  -0.01  999.9
2019/09/12 04:57:31.600   35.639392063  139.296249517   218.9757   1  16   0.0054   0.0063   0.0227   0.0016  -0.0061  -0.0023  -0.01  999.9
2019/09/12 04:57:31.800   35.639392024  139.296246768   219.0321   1  16   0.0056   0.0063   0.0227   0.0012  -0.0061  -0.0025  -0.01  999.9
2019/09/12 04:57:32.000   35.639392129  139.296244057   218.9880   1  16   0.0056   0.0063   0.0227   0.0015  -0.0061  -0.0023  -0.01  999.9
2019/09/12 04:57:32.200   35.639392423  139.296240924   219.0139   1  16   0.0056   0.0063   0.0227   0.0016  -0.0062  -0.0023  -0.01  999.9
2019/09/12 04:57:32.400   35.639392357  139.296238432   219.0217   1  16   0.0055   0.0063   0.0227   0.0015  -0.0061  -0.0024  -0.01  999.9
2019/09/12 04:57:32.600   35.639392279  139.296235425   219.0186   1  16   0.0055   0.0064   0.0227   0.0016  -0.0062  -0.0023  -0.01  999.9
2019/09/12 04:57:32.800   35.639392518  139.296232671   219.0626   1  16   0.0056   0.0063   0.0227   0.0011  -0.0061  -0.0024  -0.01  999.9
2019/09/12 04:57:33.000   35.639392936  139.296229728   218.9975   1  15   0.0057   0.0069   0.0245   0.0023  -0.0037   0.0021  -0.01  999.9
2019/09/12 04:57:33.200   35.639393421  139.296226563   219.0405   1  15   0.0057   0.0069   0.0245   0.0020  -0.0038   0.0023  -0.01  999.9
2019/09/12 04:57:33.400   35.639393398  139.296223536   218.9771   1  12   0.0069   0.0071   0.0456   0.0027   0.0071   0.0113  -0.01  999.9
2019/09/12 04:57:33.600   35.639393364  139.296220330   218.9671   1  12   0.0070   0.0071   0.0456   0.0026   0.0071   0.0113  -0.01  999.9
2019/09/12 04:57:33.800   35.639393765  139.296217122   218.9745   1  11   0.0071   0.0093   0.0623  -0.0005   0.0174   0.0089  -0.01  999.9
2019/09/12 04:57:34.000   35.639394351  139.296214042   218.9940   1  12   0.0068   0.0072   0.0456   0.0028   0.0071   0.0113  -0.01  999.9
2019/09/12 04:57:34.200   35.639394875  139.296210702   219.0041   1  13   0.0066   0.0083   0.0316  -0.0033   0.0088  -0.0077  -0.01  999.9
2019/09/12 04:57:34.400   35.639395014  139.296207831   218.9157   1  11   0.0071   0.0093   0.0622   0.0005   0.0174   0.0089  -0.01  999.9
2019/09/12 04:57:34.600   35.639394845  139.296204372   218.8377   1  10   0.0072   0.0094   0.0623  -0.0014   0.0173   0.0091  -0.01  999.9
2019/09/12 04:57:34.800   35.639395285  139.296201358   219.0098   1  13   0.0066   0.0082   0.0316  -0.0032   0.0088  -0.0077  -0.01  999.9
2019/09/12 04:57:35.000   35.639395872  139.296197861   219.0269   1  15   0.0057   0.0068   0.0245   0.0020  -0.0037   0.0022  -0.01    6.0
2019/09/12 04:57:35.200   35.639396032  139.296193979   219.0389   1  15   0.0057   0.0068   0.0245   0.0019  -0.0038   0.0022  -0.01   23.3
2019/09/12 04:57:35.400   35.639395898  139.296190533   218.9931   1  15   0.0056   0.0068   0.0245   0.0021  -0.0038   0.0023  -0.01   41.1
2019/09/12 04:57:35.600   35.639395838  139.296186943   219.0041   1  15   0.0057   0.0068   0.0245   0.0021  -0.0038   0.0023  -0.01   58.4
2019/09/12 04:57:35.800   35.639396256  139.296183928   218.9989   1  16   0.0057   0.0067   0.0244   0.0020  -0.0038   0.0023  -0.01   75.7
2019/09/12 04:57:36.000   35.639396689  139.296180586   218.9497   1  16   0.0056   0.0066   0.0236   0.0018  -0.0050  -0.0007  -0.01   92.6
2019/09/12 04:57:36.200   35.639396837  139.296177466   219.0124   1  16   0.0053   0.0064   0.0233   0.0021  -0.0054  -0.0013  -0.01  109.9
2019/09/12 04:57:36.400   35.639396858  139.296174450   218.9565   1  16   0.0057   0.0064   0.0231   0.0016  -0.0056  -0.0018  -0.01  125.8
2019/09/12 04:57:36.600   35.639396803  139.296171098   219.0022   1  16   0.0054   0.0064   0.0230   0.0015  -0.0057  -0.0019  -0.01  142.0
2019/09/12 04:57:36.800   35.639397044  139.296168138   218.9825   1  16   0.0054   0.0062   0.0230   0.0019  -0.0058  -0.0020  -0.01  157.9
2019/09/12 04:57:37.000   35.639397342  139.296164716   218.9481   1  16   0.0054   0.0064   0.0229   0.0015  -0.0058  -0.0022  -0.01  173.7
2019/09/12 04:57:37.200   35.639397269  139.296161871   218.9947   1  16   0.0056   0.0062   0.0229   0.0016  -0.0059  -0.0023  -0.01  190.1
2019/09/12 04:57:37.400   35.639397151  139.296158718   218.9343   1  16   0.0056   0.0063   0.0229   0.0013  -0.0059  -0.0021  -0.01  204.1
2019/09/12 04:57:37.600   35.639397072  139.296155463   218.9923   1  16   0.0054   0.0063   0.0228   0.0015  -0.0058  -0.0023  -0.01  219.0
2019/09/12 04:57:37.800   35.639397428  139.296152714   218.9757   1  16   0.0055   0.0064   0.0228   0.0018  -0.0059  -0.0022  -0.01  233.7
2019/09/12 04:57:38.000   35.639397914  139.296149434   218.9859   1  16   0.0055   0.0063   0.0228   0.0017  -0.0059  -0.0021  -0.01  247.7
2019/09/12 04:57:38.200   35.639398003  139.296146678   219.0232   1  16   0.0057   0.0064   0.0228   0.0011  -0.0059  -0.0022  -0.01  264.2
2019/09/12 04:57:38.400   35.639398026  139.296143568   218.9784   1  15   0.0056   0.0068   0.0244   0.0019  -0.0037   0.0022  -0.01  278.2
2019/09/12 04:57:38.600   35.639398179  139.296140648   219.0194   1  15   0.0056   0.0069   0.0244   0.0020  -0.0038   0.0022  -0.01  294.5
2019/09/12 04:57:38.800   35.639398531  139.296137728   218.9936   1  14   0.0058   0.0070   0.0270   0.0017   0.0024  -0.0033  -0.01  999.9
2019/09/12 04:57:39.000   35.639399124  139.296134581   218.9852   1  14   0.0060   0.0070   0.0270   0.0017   0.0024  -0.0034  -0.01  999.9
2019/09/12 04:57:39.200   35.639399068  139.296131630   218.9558   1  12   0.0069   0.0071   0.0455   0.0027   0.0072   0.0112  -0.01  999.9
2019/09/12 04:57:39.400   35.639399050  139.296128150   219.0013   1  13   0.0066   0.0083   0.0315  -0.0033   0.0088  -0.0077  -0.01  999.9
2019/09/12 04:57:39.600   35.639399280  139.296125062   218.9292   1  11   0.0070   0.0093   0.0621   0.0002   0.0174   0.0088  -0.01  999.9
2019/09/12 04:57:39.800   35.639399752  139.296121803   219.0237   1  13   0.0069   0.0068   0.0377   0.0025  -0.0011   0.0109  -0.01    4.9
2019/09/12 04:57:40.000   35.639400037  139.296118339   218.9707   1  13   0.0070   0.0068   0.0377   0.0027  -0.0013   0.0109  -0.01   19.9
2019/09/12 04:57:40.200   35.639399937  139.296115079   218.9999   1  15   0.0056   0.0068   0.0244   0.0020  -0.0037   0.0022  -0.01   35.5
2019/09/12 04:57:40.400   35.639399810  139.296111553   219.0021   1  15   0.0058   0.0068   0.0244   0.0020  -0.0037   0.0021  -0.01   50.8
2019/09/12 04:57:40.600   35.639400253  139.296108466   219.0217   1  15   0.0058   0.0068   0.0244   0.0019  -0.0037   0.0021  -0.01   65.9
2019/09/12 04:57:40.800   35.639400709  139.296104970   219.0020   1  15   0.0057   0.0068   0.0244   0.0020  -0.0038   0.0022  -0.01   81.2
2019/09/12 04:57:41.000   35.639400923  139.296101501   219.0250   1  15   0.0057   0.0068   0.0244   0.0021  -0.0038   0.0021  -0.01   96.3
2019/09/12 04:57:41.200   35.639400966  139.296098219   218.9827   1  15   0.0056   0.0067   0.0244   0.0024  -0.0037   0.0020  -0.01  111.0
2019/09/12 04:57:41.400   35.639400777  139.296094690   219.0106   1  16   0.0056   0.0063   0.0226   0.0013  -0.0061  -0.0024  -0.01    4.8
2019/09/12 04:57:41.600   35.639401185  139.296091606   218.9920   1  16   0.0055   0.0063   0.0226   0.0017  -0.0061  -0.0025  -0.01   19.0
2019/09/12 04:57:41.800   35.639401690  139.296088106   219.0066   1  15   0.0057   0.0068   0.0244   0.0022  -0.0037   0.0021  -0.01  154.0
2019/09/12 04:57:42.000   35.639401758  139.296084763   219.0137   1  16   0.0053   0.0063   0.0227   0.0013  -0.0061  -0.0025  -0.01   33.2
2019/09/12 04:57:42.200   35.639401644  139.296081281   218.9808   1  16   0.0056   0.0063   0.0226   0.0017  -0.0061  -0.0024  -0.01   47.2
2019/09/12 04:57:42.400   35.639401786  139.296077806   219.0110   1  15   0.0059   0.0070   0.0244   0.0028  -0.0080  -0.0049  -0.01   83.4
2019/09/12 04:57:42.600   35.639402170  139.296074469   218.9735   1  16   0.0055   0.0063   0.0226   0.0017  -0.0060  -0.0024  -0.01   74.5
2019/09/12 04:57:42.800   35.639402611  139.296070959   218.9807   1  16   0.0056   0.0062   0.0226   0.0010  -0.0061  -0.0024  -0.01   88.5
2019/09/12 04:57:43.000   35.639402574  139.296067986   218.9957   1  16   0.0055   0.0064   0.0227   0.0014  -0.0060  -0.0025  -0.01  102.0
2019/09/12 04:57:43.200   35.639402517  139.296064783   218.9711   1  16   0.0055   0.0063   0.0227   0.0013  -0.0060  -0.0026  -0.01  115.2
2019/09/12 04:57:43.400   35.639402786  139.296061735   218.9990   1  15   0.0059   0.0069   0.0244   0.0029  -0.0080  -0.0048  -0.01  173.1
2019/09/12 04:57:43.600   35.639403053  139.296058580   218.9662   1  16   0.0056   0.0063   0.0226   0.0014  -0.0061  -0.0021  -0.01  141.5
2019/09/12 04:57:43.800   35.639403447  139.296055213   218.9988   1  16   0.0055   0.0063   0.0227   0.0013  -0.0061  -0.0023  -0.01  154.2
2019/09/12 04:57:44.000   35.639403391  139.296052229   218.9858   1  16   0.0053   0.0062   0.0226   0.0016  -0.0061  -0.0023  -0.01  166.6
2019/09/12 04:57:44.200   35.639403252  139.296048824   218.9917   1  16   0.0056   0.0063   0.0226   0.0016  -0.0060  -0.0025  -0.01  178.7
2019/09/12 04:57:44.400   35.639403644  139.296045562   219.0003   1  16   0.0055   0.0063   0.0226   0.0013  -0.0060  -0.0026  -0.01  190.8
2019/09/12 04:57:44.600   35.639403968  139.296042231   218.9592   1  16   0.0054   0.0063   0.0226   0.0013  -0.0061  -0.0025  -0.01  202.6
2019/09/12 04:57:44.800   35.639404100  139.296039229   219.0015   1  15   0.0059   0.0070   0.0244   0.0027  -0.0080  -0.0049  -0.01  283.5
2019/09/12 04:57:45.000   35.639404058  139.296036302   218.9864   1  15   0.0059   0.0070   0.0244   0.0028  -0.0080  -0.0049  -0.01  298.1
2019/09/12 04:57:45.200   35.639404164  139.296033130   219.0118   1  16   0.0056   0.0063   0.0226   0.0012  -0.0060  -0.0025  -0.01  236.8
2019/09/12 04:57:45.400   35.639404628  139.296030233   218.9922   1  16   0.0055   0.0063   0.0226   0.0016  -0.0060  -0.0024  -0.01  247.6
2019/09/12 04:57:45.600   35.639405071  139.296027003   218.9868   1  16   0.0056   0.0064   0.0226   0.0013  -0.0060  -0.0024  -0.01  258.4
2019/09/12 04:57:45.800   35.639405285  139.296024138   219.0034   1  16   0.0054   0.0063   0.0226   0.0016  -0.0061  -0.0024  -0.01  270.3
2019/09/12 04:57:46.000   35.639405321  139.296021044   218.9880   1  15   0.0056   0.0068   0.0244   0.0022  -0.0038   0.0023  -0.01  424.3
2019/09/12 04:57:46.200   35.639405559  139.296018037   219.0137   1  15   0.0058   0.0068   0.0244   0.0022  -0.0037   0.0022  -0.01  434.5
2019/09/12 04:57:46.400   35.639406087  139.296015034   218.9862   1  14   0.0060   0.0070   0.0270   0.0017   0.0026  -0.0034  -0.01  999.9
2019/09/12 04:57:46.600   35.639406614  139.296011774   219.0157   1  14   0.0059   0.0070   0.0270   0.0017   0.0025  -0.0033  -0.01  999.9
2019/09/12 04:57:46.800   35.639406641  139.296008695   219.0052   1  15   0.0057   0.0063   0.0236   0.0013  -0.0057  -0.0041  -0.01  292.9
2019/09/12 04:57:47.000   35.639406713  139.296005282   218.9871   1  14   0.0058   0.0070   0.0270   0.0013   0.0026  -0.0034  -0.01  999.9
2019/09/12 04:57:47.200   35.639407115  139.296002145   219.0297   1  14   0.0058   0.0070   0.0270   0.0016   0.0025  -0.0033  -0.01  999.9
2019/09/12 04:57:47.400   35.639407589  139.295998763   218.9838   1  14   0.0058   0.0070   0.0270   0.0017   0.0026  -0.0034  -0.01  999.9
2019/09/12 04:57:47.600   35.639408126  139.295995379   218.9977   1  14   0.0058   0.0069   0.0270   0.0014   0.0026  -0.0034  -0.01  999.9
2019/09/12 04:57:47.800   35.639408038  139.295992456   218.9831   1  14   0.0065   0.0069   0.0251  -0.0027  -0.0031  -0.0065  -0.01  297.4
2019/09/12 04:57:48.000   35.639407902  139.295989137   219.0041   1  12   0.0074   0.0089   0.0253  -0.0053  -0.0050  -0.0057  -0.01  373.8
2019/09/12 04:57:48.200   35.639408195  139.295985958   219.0190   1  14   0.0065   0.0068   0.0251  -0.0026  -0.0032  -0.0065  -0.01  321.8
2019/09/12 04:57:48.400   35.639408498  139.295982484   218.9855   1  14   0.0064   0.0068   0.0251  -0.0026  -0.0032  -0.0065  -0.01  332.6
2019/09/12 04:57:48.600   35.639408793  139.295979220   219.0111   1  14   0.0065   0.0069   0.0251  -0.0027  -0.0032  -0.0065  -0.01  343.9
2019/09/12 04:57:48.800   35.639408785  139.295975980   218.9965   1  14   0.0065   0.0069   0.0251  -0.0025  -0.0032  -0.0065  -0.01  352.0
2019/09/12 04:57:49.000   35.639408943  139.295972555   219.0127   1  14   0.0065   0.0069   0.0251  -0.0027  -0.0031  -0.0065  -0.01  363.2
2019/09/12 04:57:49.200   35.639409494  139.295969162   218.9862   1  13   0.0066   0.0080   0.0262  -0.0011  -0.0064  -0.0072  -0.01  493.8
2019/09/12 04:57:49.400   35.639409960  139.295965128   218.9945   1  14   0.0060   0.0079   0.0246   0.0009  -0.0071  -0.0054  -0.01    6.7
2019/09/12 04:57:49.600   35.639410337  139.295961617   218.9933   1  15   0.0059   0.0067   0.0235  -0.0019  -0.0046  -0.0046  -0.01   18.4
2019/09/12 04:57:49.800   35.639410479  139.295958133   218.9654   1  15   0.0060   0.0068   0.0235  -0.0018  -0.0046  -0.0045  -0.01   31.6
2019/09/12 04:57:50.000   35.639410774  139.295954508   218.9971   1  15   0.0059   0.0068   0.0235  -0.0020  -0.0046  -0.0045  -0.01   44.3
2019/09/12 04:57:50.200   35.639411379  139.295951372   218.9770   1  16   0.0055   0.0063   0.0226   0.0014  -0.0060  -0.0025  -0.01    4.5
2019/09/12 04:57:50.400   35.639412078  139.295947883   218.9788   1  16   0.0056   0.0063   0.0226   0.0012  -0.0061  -0.0025  -0.01   16.9
2019/09/12 04:57:50.600   35.639412203  139.295944783   218.9969   1  16   0.0052   0.0064   0.0226   0.0012  -0.0060  -0.0025  -0.01   28.9
2019/09/12 04:57:50.800   35.639412304  139.295941307   218.9631   1  16   0.0055   0.0063   0.0226   0.0015  -0.0060  -0.0025  -0.01   40.7
2019/09/12 04:57:51.000   35.639412718  139.295938140   219.0052   1  16   0.0057   0.0063   0.0226   0.0011  -0.0060  -0.0026  -0.01   52.7
2019/09/12 04:57:51.200   35.639413146  139.295935087   218.9683   1  16   0.0056   0.0063   0.0226   0.0012  -0.0060  -0.0025  -0.01   64.2
2019/09/12 04:57:51.400   35.639413712  139.295931729   218.9946   1  16   0.0057   0.0063   0.0226   0.0013  -0.0060  -0.0026  -0.01   76.1
2019/09/12 04:57:51.600   35.639413662  139.295928722   218.9800   1  16   0.0055   0.0064   0.0226   0.0012  -0.0059  -0.0025  -0.01   86.8
2019/09/12 04:57:51.800   35.639413719  139.295925421   218.9954   1  16   0.0057   0.0063   0.0226   0.0013  -0.0060  -0.0024  -0.01   98.2
2019/09/12 04:57:52.000   35.639414271  139.295922372   218.9969   1  15   0.0060   0.0068   0.0236  -0.0017  -0.0045  -0.0045  -0.01  165.2
2019/09/12 04:57:52.200   35.639414709  139.295918881   218.9985   1  14   0.0060   0.0075   0.0261  -0.0013   0.0039  -0.0037  -0.01  178.3
2019/09/12 04:57:52.400   35.639414935  139.295915903   219.0177   1  15   0.0058   0.0064   0.0236   0.0006  -0.0056  -0.0042  -0.01  111.4
2019/09/12 04:57:52.600   35.639414901  139.295912599   219.0085   1  13   0.0065   0.0083   0.0315  -0.0033   0.0089  -0.0077  -0.01  999.9
2019/09/12 04:57:52.800   35.639414951  139.295909017   218.9802   1  13   0.0065   0.0083   0.0315  -0.0033   0.0089  -0.0077  -0.01  999.9
2019/09/12 04:57:53.000   35.639415269  139.295905657   218.9946   1  15   0.0057   0.0068   0.0244   0.0022  -0.0036   0.0021  -0.01  119.4
2019/09/12 04:57:53.200   35.639415670  139.295901983   219.0005   1  15   0.0056   0.0068   0.0244   0.0023  -0.0036   0.0021  -0.01  130.6
2019/09/12 04:57:53.400   35.639415698  139.295898667   219.0235   1  15   0.0055   0.0067   0.0244   0.0023  -0.0036   0.0022  -0.01  141.8
2019/09/12 04:57:53.600   35.639415649  139.295895235   218.9781   1  15   0.0060   0.0067   0.0235  -0.0017  -0.0045  -0.0046  -0.01    4.0
2019/09/12 04:57:53.800   35.639415905  139.295891902   219.0070   1  16   0.0055   0.0063   0.0226   0.0011  -0.0060  -0.0024  -0.01   15.1
2019/09/12 04:57:54.000   35.639416351  139.295888730   218.9753   1  16   0.0056   0.0064   0.0226   0.0013  -0.0060  -0.0025  -0.01   25.7
2019/09/12 04:57:54.200   35.639416845  139.295885310   219.0046   1  15   0.0056   0.0067   0.0244   0.0022  -0.0036   0.0020  -0.01  170.3
2019/09/12 04:57:54.400   35.639416937  139.295882152   218.9880   1  16   0.0056   0.0063   0.0226   0.0014  -0.0060  -0.0025  -0.01   35.7
2019/09/12 04:57:54.600   35.639416903  139.295878635   218.9867   1  14   0.0060   0.0075   0.0261  -0.0010   0.0040  -0.0038  -0.01  263.1
2019/09/12 04:57:54.800   35.639417324  139.295875329   219.0152   1  15   0.0060   0.0067   0.0235  -0.0017  -0.0045  -0.0046  -0.01   46.1
2019/09/12 04:57:55.000   35.639417816  139.295872028   218.9804   1  14   0.0059   0.0075   0.0261  -0.0012   0.0040  -0.0038  -0.01  282.3
2019/09/12 04:57:55.200   35.639418098  139.295868564   218.9902   1  15   0.0058   0.0067   0.0235  -0.0017  -0.0045  -0.0046  -0.01   55.8
2019/09/12 04:57:55.400   35.639418205  139.295865614   218.9723   1  14   0.0061   0.0075   0.0261  -0.0009   0.0040  -0.0038  -0.01  300.0
2019/09/12 04:57:55.600   35.639418172  139.295862107   218.9793   1  13   0.0061   0.0091   0.0265   0.0022  -0.0026  -0.0045  -0.01  384.7
2019/09/12 04:57:55.800   35.639418775  139.295858864   218.9789   1  12   0.0066   0.0099   0.0316  -0.0022   0.0080  -0.0079  -0.01  999.9
2019/09/12 04:57:56.000   35.639419201  139.295855521   218.9869   1  13   0.0061   0.0076   0.0261  -0.0018   0.0040  -0.0037  -0.01  358.5
2019/09/12 04:57:56.200   35.639419389  139.295852124   219.0066   1  12   0.0074   0.0088   0.0355  -0.0047   0.0114  -0.0108  -0.01  999.9
2019/09/12 04:57:56.400   35.639419377  139.295848603   218.9933   1   9   0.0099   0.0103   0.0442   0.0022   0.0037  -0.0170  -0.01  999.9
2019/09/12 04:57:56.600   35.639419594  139.295845080   219.0013   1  12   0.0073   0.0088   0.0355  -0.0047   0.0114  -0.0108  -0.01  999.9
2019/09/12 04:57:56.800   35.639419994  139.295841423   219.0188   1  10   0.0096   0.0101   0.0438   0.0031   0.0016  -0.0166  -0.01  999.9
2019/09/12 04:57:57.000   35.639420292  139.295837767   218.9935   1  14   0.0060   0.0075   0.0261  -0.0013   0.0040  -0.0038  -0.01  321.9
2019/09/12 04:57:57.200   35.639420352  139.295834348   218.9831   1  13   0.0062   0.0091   0.0265   0.0024  -0.0026  -0.0046  -0.01  409.3
2019/09/12 04:57:57.400   35.639420268  139.295830632   219.0100   1  11   0.0078   0.0098   0.0319   0.0049  -0.0086  -0.0103  -0.01  430.9
2019/09/12 04:57:57.600   35.639420578  139.295827488   219.0176   1  13   0.0061   0.0091   0.0265   0.0024  -0.0025  -0.0045  -0.01  432.4
2019/09/12 04:57:57.800   35.639421092  139.295824162   218.9808   1  14   0.0061   0.0075   0.0257   0.0033  -0.0062  -0.0036  -0.01    3.8
2019/09/12 04:57:58.000   35.639421340  139.295820827   218.9837   1  15   0.0057   0.0068   0.0244   0.0022  -0.0036   0.0021  -0.01   13.2
2019/09/12 04:57:58.200   35.639421348  139.295817811   218.9797   1  15   0.0056   0.0068   0.0244   0.0023  -0.0034   0.0019  -0.01   23.5
2019/09/12 04:57:58.400   35.639421257  139.295814276   218.9857   1  14   0.0061   0.0075   0.0257   0.0033  -0.0062  -0.0036  -0.01   40.5
2019/09/12 04:57:58.600   35.639421600  139.295811063   218.9932   1  15   0.0058   0.0067   0.0244   0.0023  -0.0036   0.0019  -0.01   42.8
2019/09/12 04:57:58.800   35.639421967  139.295807652   218.9966   1  15   0.0057   0.0068   0.0244   0.0022  -0.0036   0.0021  -0.01   53.2
2019/09/12 04:57:59.000   35.639422076  139.295804263   218.9973   1  13   0.0065   0.0083   0.0315  -0.0033   0.0089  -0.0077  -0.01  999.9
2019/09/12 04:57:59.200   35.639422156  139.295801009   218.9572   1  13   0.0062   0.0090   0.0265   0.0023  -0.0025  -0.0046  -0.01  506.8
2019/09/12 04:57:59.400   35.639422049  139.295797446   218.9838   1  14   0.0060   0.0076   0.0261  -0.0013   0.0041  -0.0038  -0.01  419.6
2019/09/12 04:57:59.600   35.639422429  139.295793884   218.9587   1  15   0.0056   0.0067   0.0244   0.0021  -0.0037   0.0023  -0.01   62.7
2019/09/12 04:57:59.800   35.639422728  139.295790299   218.9861   1  15   0.0058   0.0067   0.0244   0.0021  -0.0035   0.0019  -0.01   72.4
2019/09/12 04:58:00.000   35.639422686  139.295786904   218.9816   1  16   0.0056   0.0064   0.0226   0.0013  -0.0059  -0.0026  -0.01    3.6
2019/09/12 04:58:00.200   35.639422599  139.295783492   218.9837   1  14   0.0060   0.0075   0.0261  -0.0014   0.0041  -0.0038  -0.01  451.7
2019/09/12 04:58:00.400   35.639422789  139.295779877   218.9927   1  16   0.0055   0.0064   0.0226   0.0007  -0.0060  -0.0025  -0.01   13.7
2019/09/12 04:58:00.600   35.639422874  139.295776420   218.9710   1  16   0.0054   0.0064   0.0226   0.0014  -0.0059  -0.0026  -0.01   23.8
2019/09/12 04:58:00.800   35.639423201  139.295773135   218.9827   1  16   0.0056   0.0062   0.0226   0.0014  -0.0060  -0.0026  -0.01   33.6
2019/09/12 04:58:01.000   35.639423269  139.295770152   218.9656   1  16   0.0053   0.0064   0.0226   0.0004  -0.0060  -0.0027  -0.01   43.3
2019/09/12 04:58:01.200   35.639423384  139.295766727   219.0006   1  15   0.0056   0.0068   0.0244   0.0022  -0.0036   0.0022  -0.01  128.5
2019/09/12 04:58:01.400   35.639423768  139.295763418   218.9853   1  16   0.0055   0.0063   0.0226   0.0013  -0.0059  -0.0026  -0.01   52.9
2019/09/12 04:58:01.600   35.639424208  139.295759970   218.9686   1  15   0.0057   0.0069   0.0244   0.0020  -0.0034   0.0018  -0.01  147.3
2019/09/12 04:58:01.800   35.639424237  139.295756629   218.9927   1  16   0.0054   0.0062   0.0226   0.0016  -0.0059  -0.0026  -0.01   62.4
2019/09/12 04:58:02.000   35.639424072  139.295752987   218.9688   1  15   0.0059   0.0070   0.0243   0.0027  -0.0078  -0.0049  -0.01   87.9
2019/09/12 04:58:02.200   35.639424095  139.295749467   218.9876   1  16   0.0055   0.0063   0.0226   0.0014  -0.0060  -0.0025  -0.01   81.1
2019/09/12 04:58:02.400   35.639424174  139.295746057   218.9380   1  16   0.0056   0.0062   0.0226   0.0012  -0.0060  -0.0026  -0.01   90.1
2019/09/12 04:58:02.600   35.639424365  139.295742466   218.9713   1  16   0.0056   0.0064   0.0226   0.0012  -0.0060  -0.0024  -0.01   99.6
2019/09/12 04:58:02.800   35.639424310  139.295739372   218.9652   1  16   0.0056   0.0062   0.0226   0.0015  -0.0060  -0.0026  -0.01  108.7
2019/09/12 04:58:03.000   35.639424251  139.295735876   218.9857   1  16   0.0055   0.0062   0.0226   0.0017  -0.0059  -0.0026  -0.01  117.9
2019/09/12 04:58:03.200   35.639424516  139.295732626   218.9938   1  16   0.0054   0.0063   0.0226   0.0010  -0.0060  -0.0026  -0.01  126.8
2019/09/12 04:58:03.400   35.639424794  139.295729353   218.9565   1  15   0.0058   0.0067   0.0244   0.0023  -0.0035   0.0020  -0.01  226.1
2019/09/12 04:58:03.600   35.639424848  139.295726296   218.9992   1  15   0.0056   0.0068   0.0244   0.0022  -0.0035   0.0020  -0.01  232.8
2019/09/12 04:58:03.800   35.639424973  139.295723054   218.9613   1  15   0.0056   0.0067   0.0244   0.0023  -0.0034   0.0019  -0.01  241.7
2019/09/12 04:58:04.000   35.639424992  139.295719519   219.0007   1  15   0.0058   0.0067   0.0244   0.0023  -0.0036   0.0020  -0.01  249.6
2019/09/12 04:58:04.200   35.639425429  139.295716444   218.9765   1  15   0.0056   0.0068   0.0244   0.0022  -0.0034   0.0018  -0.01  256.7
2019/09/12 04:58:04.400   35.639425684  139.295713065   219.0028   1  16   0.0056   0.0064   0.0226   0.0010  -0.0059  -0.0026  -0.01    3.6
2019/09/12 04:58:04.600   35.639425539  139.295709913   219.0044   1  15   0.0055   0.0068   0.0244   0.0023  -0.0035   0.0020  -0.01  272.9
2019/09/12 04:58:04.800   35.639425321  139.295706690   218.9929   1  16   0.0057   0.0063   0.0226   0.0010  -0.0059  -0.0025  -0.01   12.7
2019/09/12 04:58:05.000   35.639425442  139.295703357   219.0165   1  15   0.0056   0.0069   0.0244   0.0019  -0.0035   0.0020  -0.01  288.9
2019/09/12 04:58:05.200   35.639425690  139.295700339   218.9825   1  15   0.0057   0.0068   0.0244   0.0023  -0.0035   0.0020  -0.01  296.9
2019/09/12 04:58:05.400   35.639426008  139.295696938   218.9952   1  15   0.0057   0.0068   0.0244   0.0020  -0.0034   0.0019  -0.01  304.3
2019/09/12 04:58:05.600   35.639426072  139.295693751   218.9742   1  16   0.0055   0.0063   0.0226   0.0011  -0.0059  -0.0025  -0.01   21.9
2019/09/12 04:58:05.800   35.639425882  139.295690465   218.9966   1  15   0.0058   0.0068   0.0244   0.0020  -0.0035   0.0019  -0.01  323.3
2019/09/12 04:58:06.000   35.639426052  139.295687257   219.0166   1  16   0.0054   0.0064   0.0226   0.0013  -0.0058  -0.0025  -0.01   31.2
2019/09/12 04:58:06.200   35.639426403  139.295684050   218.9697   1  16   0.0058   0.0063   0.0226   0.0010  -0.0059  -0.0026  -0.01   40.2
2019/09/12 04:58:06.400   35.639426438  139.295680678   218.9938   1  16   0.0055   0.0062   0.0226   0.0013  -0.0060  -0.0026  -0.01   48.6
2019/09/12 04:58:06.600   35.639426138  139.295677639   218.9898   1  16   0.0055   0.0063   0.0226   0.0012  -0.0059  -0.0025  -0.01   57.0
2019/09/12 04:58:06.800   35.639425687  139.295674228   218.9765   1  16   0.0058   0.0063   0.0226  -0.0003  -0.0059  -0.0026  -0.01   65.3
2019/09/12 04:58:07.000   35.639425804  139.295671117   218.9864   1  16   0.0057   0.0064   0.0226   0.0010  -0.0059  -0.0026  -0.01   73.4
2019/09/12 04:58:07.200   35.639425734  139.295667822   219.0133   1  15   0.0057   0.0067   0.0244   0.0023  -0.0035   0.0018  -0.01  374.7
2019/09/12 04:58:07.400   35.639425353  139.295664505   219.0010   1  16   0.0056   0.0064   0.0226   0.0008  -0.0059  -0.0025  -0.01   82.3
2019/09/12 04:58:07.600   35.639424809  139.295661488   218.9923   1  15   0.0057   0.0068   0.0244   0.0020  -0.0034   0.0018  -0.01  392.0
2019/09/12 04:58:07.800   35.639424346  139.295658149   218.9902   1  16   0.0056   0.0064   0.0226   0.0003  -0.0059  -0.0026  -0.01   90.5
2019/09/12 04:58:08.000   35.639424179  139.295654985   218.9471   1  16   0.0055   0.0063   0.0226   0.0012  -0.0059  -0.0025  -0.01   98.6
2019/09/12 04:58:08.200   35.639423979  139.295651403   218.9860   1  15   0.0057   0.0068   0.0244   0.0020  -0.0035   0.0020  -0.01  412.8
2019/09/12 04:58:08.400   35.639423278  139.295648247   218.9772   1  16   0.0056   0.0063   0.0226   0.0014  -0.0060  -0.0024  -0.01  106.7
2019/09/12 04:58:08.600   35.639422433  139.295644882   218.9893   1  13   0.0061   0.0090   0.0264   0.0023  -0.0024  -0.0046  -0.01  918.9
2019/09/12 04:58:08.800   35.639422023  139.295641504   219.0076   1  15   0.0057   0.0070   0.0243   0.0029  -0.0078  -0.0049  -0.01  137.9
2019/09/12 04:58:09.000   35.639421566  139.295638152   218.9820   1  13   0.0061   0.0090   0.0264   0.0023  -0.0024  -0.0046  -0.01  931.5
2019/09/12 04:58:09.200   35.639421158  139.295634904   218.9857   1  14   0.0060   0.0075   0.0260  -0.0015   0.0041  -0.0038  -0.01  789.2
2019/09/12 04:58:09.400   35.639420524  139.295631688   218.9618   1  14   0.0061   0.0079   0.0245   0.0010  -0.0070  -0.0054  -0.01  147.6
2019/09/12 04:58:09.600   35.639419648  139.295628317   218.9171   1  10   0.0071   0.0111   0.0614   0.0026   0.0179   0.0084  -0.01  999.9
2019/09/12 04:58:09.800   35.639419272  139.295624874   218.9744   1  13   0.0067   0.0080   0.0261  -0.0014  -0.0063  -0.0072  -0.01  172.2
2019/09/12 04:58:10.000   35.639418793  139.295621301   218.9156   1  10   0.0071   0.0110   0.0614   0.0027   0.0179   0.0084  -0.01  999.9
2019/09/12 04:58:10.200   35.639418212  139.295618165   218.9333   1  10   0.0071   0.0110   0.0614   0.0027   0.0179   0.0084  -0.01  999.9
2019/09/12 04:58:10.400   35.639417510  139.295614918   218.9053   1  10   0.0071   0.0110   0.0614   0.0027   0.0179   0.0084  -0.01  999.9
2019/09/12 04:58:10.600   35.639416521  139.295611546   219.0533   1  10   0.0096   0.0102   0.0437   0.0029   0.0024  -0.0166  -0.01  999.9
2019/09/12 04:58:10.800   35.639416361  139.295607975   218.8252   1   7   0.0186   0.0286   0.1862   0.0195   0.0641   0.0335  -0.01  999.9
2019/09/12 04:58:11.000   35.639415642  139.295604503   218.9444   1   8   0.0108   0.0114   0.1316  -0.0041   0.0257  -0.0296  -0.01  999.9
2019/09/12 04:58:11.200   35.639414874  139.295601229   218.9743   1   8   0.0108   0.0114   0.1316  -0.0041   0.0257  -0.0296  -0.01  999.9
2019/09/12 04:58:11.400   35.639413940  139.295597893   218.9055   1   8   0.0108   0.0114   0.1316  -0.0041   0.0257  -0.0296  -0.01  999.9
2019/09/12 04:58:11.600   35.639413143  139.295594598   219.0173   1  10   0.0096   0.0102   0.0437   0.0029   0.0025  -0.0166  -0.01  999.9
2019/09/12 04:58:11.800   35.639412579  139.295591064   218.9409   1   8   0.0108   0.0114   0.1315  -0.0041   0.0257  -0.0296  -0.01  999.9
2019/09/12 04:58:12.000   35.639411743  139.295587836   219.0115   1  10   0.0097   0.0101   0.0437   0.0029   0.0025  -0.0166  -0.01  999.9
2019/09/12 04:58:12.200   35.639410793  139.295584422   218.8670   1   8   0.0108   0.0114   0.1315  -0.0041   0.0257  -0.0296  -0.01  999.9
2019/09/12 04:58:12.400   35.639409652  139.295580907   219.0256   1  10   0.0096   0.0101   0.0437   0.0029   0.0025  -0.0166  -0.01  999.9
2019/09/12 04:58:12.600   35.639408690  139.295577388   218.9766   1  14   0.0060   0.0075   0.0257   0.0034  -0.0061  -0.0036  -0.01    3.0
2019/09/12 04:58:12.800   35.639407854  139.295573919   218.9931   1  16   0.0056   0.0063   0.0226   0.0015  -0.0059  -0.0026  -0.01    4.1
2019/09/12 04:58:13.000   35.639406721  139.295570665   218.9581   1  16   0.0055   0.0063   0.0226   0.0017  -0.0059  -0.0025  -0.01   16.1
2019/09/12 04:58:13.200   35.639405427  139.295567162   218.9821   1  15   0.0058   0.0069   0.0243   0.0026  -0.0078  -0.0048  -0.01   27.8
2019/09/12 04:58:13.400   35.639404618  139.295563788   218.9900   1  16   0.0056   0.0063   0.0226   0.0014  -0.0058  -0.0027  -0.01   28.7
2019/09/12 04:58:13.600   35.639403746  139.295560243   218.9845   1  15   0.0057   0.0069   0.0243   0.0030  -0.0078  -0.0049  -0.01   51.6
2019/09/12 04:58:13.800   35.639402705  139.295557001   218.9915   1  14   0.0061   0.0079   0.0245   0.0010  -0.0070  -0.0054  -0.01   62.6
2019/09/12 04:58:14.000   35.639401371  139.295553808   218.9731   1  14   0.0060   0.0079   0.0245   0.0012  -0.0070  -0.0054  -0.01   74.0
2019/09/12 04:58:14.200   35.639399986  139.295550484   219.0160   1  12   0.0077   0.0087   0.0305   0.0044  -0.0106  -0.0108  -0.01   85.7
2019/09/12 04:58:14.400   35.639398962  139.295546989   218.9857   1  12   0.0077   0.0087   0.0305   0.0044  -0.0107  -0.0108  -0.01   97.2
2019/09/12 04:58:14.600   35.639397972  139.295543802   218.9759   1  14   0.0061   0.0079   0.0245   0.0009  -0.0070  -0.0054  -0.01   90.8
2019/09/12 04:58:14.800   35.639396535  139.295540930   218.9610   1  16   0.0054   0.0063   0.0226   0.0014  -0.0059  -0.0026  -0.01    4.0
2019/09/12 04:58:15.000   35.639394987  139.295537687   219.0179   1  11   0.0078   0.0098   0.0318   0.0048  -0.0085  -0.0103  -0.01  148.4
2019/09/12 04:58:15.200   35.639393901  139.295534526   218.9882   1  12   0.0078   0.0087   0.0305   0.0044  -0.0106  -0.0108  -0.01  131.0
2019/09/12 04:58:15.400   35.639392682  139.295531213   218.9849   1  11   0.0071   0.0092   0.0412   0.0031   0.0061   0.0095  -0.01  123.1
2019/09/12 04:58:15.600   35.639391196  139.295528141   218.9825   1  10   0.0079   0.0089   0.0402   0.0040  -0.0130  -0.0089  -0.01  153.5
2019/09/12 04:58:15.800   35.639389559  139.295525204   218.9846   1   9   0.0082   0.0098   0.0490   0.0050  -0.0075  -0.0043  -0.01  205.8
2019/09/12 04:58:16.000   35.639388109  139.295522173   219.0062   1   9   0.0082   0.0098   0.0490   0.0049  -0.0075  -0.0043  -0.01  215.7
2019/09/12 04:58:16.200   35.639386778  139.295518697   219.0009   1   9   0.0082   0.0098   0.0490   0.0049  -0.0075  -0.0043  -0.01  225.6
2019/09/12 04:58:16.400   35.639385409  139.295515408   218.9720   1  11   0.0070   0.0091   0.0412   0.0031   0.0062   0.0095  -0.01  134.0
2019/09/12 04:58:16.600   35.639384144  139.295512611   219.0127   1   8   0.0170   0.0152   0.0507   0.0141  -0.0145  -0.0147  -0.01  716.7
2019/09/12 04:58:16.800   35.639382523  139.295509310   218.9792   1   8   0.0170   0.0152   0.0507   0.0141  -0.0145  -0.0147  -0.01  740.3
2019/09/12 04:58:17.000   35.639381267  139.295506055   218.9666   1  10   0.0079   0.0089   0.0402   0.0039  -0.0130  -0.0089  -0.01    3.1
2019/09/12 04:58:17.200   35.639380048  139.295502822   218.9971   1   9   0.0082   0.0098   0.0490   0.0049  -0.0074  -0.0043  -0.01  276.4
2019/09/12 04:58:17.400   35.639378482  139.295499981   219.0151   1  10   0.0079   0.0089   0.0402   0.0040  -0.0130  -0.0089  -0.01   14.6
2019/09/12 04:58:17.600   35.639376926  139.295497004   218.9757   1   8   0.0170   0.0153   0.0507   0.0141  -0.0145  -0.0147  -0.01  850.1
2019/09/12 04:58:17.800   35.639375356  139.295493807   219.0147   1   9   0.0120   0.0105   0.0496   0.0081  -0.0181  -0.0185  -0.01   68.5
2019/09/12 04:58:18.000   35.639373931  139.295490685   218.9461   1  10   0.0079   0.0090   0.0402   0.0040  -0.0129  -0.0089  -0.01   36.3
