%  GPST                  latitude(deg) longitude(deg)  height(m)   Q  ns   sdn(m)   sde(m)   sdu(m)  sdne(m)  sdeu(m)  sdun(m) age(s)  ratio
2019/09/12 04:56:55.200   35.639391291  139.296339206   218.9622   1  17   0.0049   0.0050   0.0187  -0.0009  -0.0062   0.0044   0.19   10.6
2019/09/12 04:56:55.400   35.639391305  139.296339208   218.9565   1  17   0.0049   0.0050   0.0187   0.0002  -0.0062   0.0044   0.19   12.2
2019/09/12 04:56:55.600   35.639391309  139.296339194   218.9528   1  17   0.0049   0.0050   0.0187  -0.0010  -0.0062   0.0045   0.19   12.9
2019/09/12 04:56:55.800   35.639391323  139.296339149   218.9653   1  17   0.0048   0.0049   0.0187  -0.0011  -0.0062   0.0046   0.19   12.6
2019/09/12 04:56:56.000   35.639391324  139.296339128   218.9508   1  17   0.0048   0.0051   0.0187  -0.0011  -0.0062   0.0045   0.19   13.1
2019/09/12 04:56:56.200   35.639391321  139.296339094   218.9579   1  17   0.0051   0.0047   0.0187  -0.0009  -0.0062   0.0044   0.19   13.0
2019/09/12 04:56:56.400   35.639391314  139.296339132   218.9516   1  17   0.0048   0.0048   0.0187  -0.0005  -0.0062   0.0044   0.19   13.0
2019/09/12 04:56:56.600   35.639391317  139.296339131   218.9536   1  17   0.0049   0.0051   0.0187  -0.0012  -0.0061   0.0044   0.19   13.1
2019/09/12 04:56:56.800   35.639391311  139.296339153   218.9605   1  17   0.0049   0.0049   0.0188  -0.0009  -0.0062   0.0044   0.39   13.2
2019/09/12 04:56:57.000   35.639391301  139.296339171   218.9568   1  17   0.0050   0.0051   0.0187  -0.0005  -0.0062   0.0043   0.19   13.1
2019/09/12 04:56:57.200   35.639391292  139.296339140   218.9577   1  17   0.0050   0.0052   0.0187   0.0009  -0.0061   0.0043   0.19   42.6
2019/09/12 04:56:57.400   35.639391313  139.296339153   218.9586   1  17   0.0047   0.0051   0.0187   0.0008  -0.0061   0.0044   0.19   59.3
2019/09/12 04:56:57.600   35.639391312  139.296339194   218.9557   1  17   0.0047   0.0050   0.0188  -0.0010  -0.0061   0.0044   0.19   75.2
2019/09/12 04:56:57.800   35.639391313  139.296339209   218.9572   1  17   0.0053   0.0048   0.0187  -0.0015  -0.0063   0.0045   0.19   90.1
2019/09/12 04:56:58.000   35.639391326  139.296339241   218.9558   1  17   0.0049   0.0053   0.0187  -0.0015  -0.0062   0.0046   0.19  102.7
2019/09/12 04:56:58.200   35.639391331  139.296339256   218.9661   1  17   0.0046   0.0050   0.0187  -0.0007  -0.0063   0.0046   0.39  113.6
2019/09/12 04:56:58.400   35.639391354  139.296339266   218.9600   1  17   0.0049   0.0050   0.0188   0.0009  -0.0062   0.0046   0.39  124.2
2019/09/12 04:56:58.600   35.639391357  139.296339281   218.9591   1  17   0.0047   0.0052   0.0187   0.0002  -0.0061   0.0045   0.19  132.7
2019/09/12 04:56:58.800   35.639391375  139.296339280   218.9571   1  17   0.0046   0.0049   0.0187   0.0010  -0.0061   0.0045   0.19  141.7
2019/09/12 04:56:59.000   35.639391359  139.296339293   218.9607   1  17   0.0050   0.0052   0.0187  -0.0002  -0.0062   0.0045   0.19  149.2
2019/09/12 04:56:59.200   35.639391397  139.296339268   218.9582   1  17   0.0049   0.0049   0.0187  -0.0010  -0.0061   0.0042   0.19  157.7
2019/09/12 04:56:59.400   35.639391400  139.296339306   218.9609   1  17   0.0046   0.0050   0.0187  -0.0010  -0.0061   0.0043   0.19  167.1
2019/09/12 04:56:59.600   35.639391392  139.296339255   218.9555   1  17   0.0049   0.0050   0.0187   0.0007  -0.0060   0.0042   0.19  176.1
2019/09/12 04:56:59.800   35.639391368  139.296339252   218.9611   1  17   0.0049   0.0051   0.0187  -0.0007  -0.0061   0.0044   0.19  183.3
2019/09/12 04:57:00.000   35.639391362  139.296339252   218.9561   1  17   0.0053   0.0051   0.0186  -0.0013  -0.0063   0.0047   0.19  189.5
2019/09/12 04:57:00.200   35.639391341  139.296339226   218.9567   1  17   0.0047   0.0049   0.0187  -0.0007  -0.0063   0.0046   0.19  196.7
2019/09/12 04:57:00.400   35.639391313  139.296339222   218.9570   1  17   0.0049   0.0051   0.0187   0.0008  -0.0061   0.0043   0.19  202.3
2019/09/12 04:57:00.600   35.639391313  139.296339213   218.9534   1  17   0.0049   0.0052   0.0188  -0.0015  -0.0061   0.0045   0.19  208.3
2019/09/12 04:57:00.800   35.639391302  139.296339212   218.9571   1  17   0.0046   0.0051   0.0187   0.0014  -0.0061   0.0046   0.19  215.3
2019/09/12 04:57:01.000   35.639391267  139.296339212   218.9551   1  17   0.0045   0.0052   0.0187   0.0011  -0.0061   0.0044   0.19  220.5
2019/09/12 04:57:01.200   35.639391278  139.296339241   218.9510   1  17   0.0050   0.0051   0.0187  -0.0016  -0.0062   0.0043   0.19  226.6
2019/09/12 04:57:01.400   35.639391263  139.296339192   218.9559   1  17   0.0050   0.0049   0.0187  -0.0012  -0.0061   0.0045   0.19  230.3
2019/09/12 04:57:01.600   35.639391257  139.296339197   218.9597   1  17   0.0047   0.0053   0.0187   0.0005  -0.0060   0.0045   0.19  233.9
2019/09/12 04:57:01.800   35.639391244  139.296339165   218.9611   1  17   0.0053   0.0051   0.0188  -0.0018  -0.0061   0.0044   0.39  238.2
2019/09/12 04:57:02.000   35.639391222  139.296339181   218.9535   1  17   0.0050   0.0050   0.0187  -0.0013  -0.0061   0.0045   0.39  242.1
2019/09/12 04:57:02.200   35.639391226  139.296339179   218.9583   1  17   0.0049   0.0051   0.0187  -0.0017  -0.0062   0.0044   0.19  245.1
2019/09/12 04:57:02.400   35.639391269  139.296339149   218.9699   1  17   0.0052   0.0053   0.0187  -0.0017  -0.0061   0.0044   0.19  248.2
2019/09/12 04:57:02.600   35.639391269  139.296339147   218.9724   1  17   0.0053   0.0051   0.0187  -0.0018  -0.0063   0.0046   0.39  250.8
2019/09/12 04:57:02.800   35.639391237  139.296339093   218.9759   1  17   0.0047   0.0049   0.0187   0.0009  -0.0062   0.0046   0.39  252.9
2019/09/12 04:57:03.000   35.639391224  139.296339102   218.9600   1  17   0.0047   0.0047   0.0187   0.0007  -0.0061   0.0044   0.19  258.7
2019/09/12 04:57:03.200   35.639391157  139.296338939   218.9565   1  17   0.0051   0.0051   0.0187  -0.0004  -0.0062   0.0043   0.39  259.8
2019/09/12 04:57:03.400   35.639391208  139.296338426   218.9675   1  17   0.0047   0.0052   0.0158  -0.0014  -0.0055  -0.0004   0.39    5.0
2019/09/12 04:57:03.600   35.639391210  139.296338310   218.9650   1  17   0.0044   0.0047   0.0159   0.0021  -0.0054  -0.0013   0.59   22.3
2019/09/12 04:57:03.800   35.639391404  139.296338360   218.9830   1  17   0.0044   0.0048   0.0158   0.0019  -0.0054  -0.0011   0.39   39.5
2019/09/12 04:57:04.000   35.639391684  139.296339064   218.9965   1  17   0.0043   0.0051   0.0164  -0.0014  -0.0057   0.0022   0.19   55.0
2019/09/12 04:57:04.200   35.639392014  139.296339364   218.9833   1  15   0.0059   0.0052   0.0238  -0.0025  -0.0075   0.0080   0.39  284.6
2019/09/12 04:57:04.400   35.639392240  139.296339404   218.9868   1  15   0.0061   0.0054   0.0237  -0.0020  -0.0075   0.0078   0.19  290.7
2019/09/12 04:57:04.600   35.639392265  139.296339526   218.9806   1  15   0.0061   0.0053   0.0237  -0.0021  -0.0076   0.0079   0.39  293.7
2019/09/12 04:57:04.800   35.639392317  139.296339659   218.9804   1  15   0.0056   0.0052   0.0238  -0.0019  -0.0075   0.0080   0.39  298.1
2019/09/12 04:57:05.000   35.639392394  139.296339823   218.9852   1  15   0.0057   0.0052   0.0237  -0.0021  -0.0075   0.0081   0.19  301.2
2019/09/12 04:57:05.200   35.639392413  139.296339821   218.9811   1  15   0.0060   0.0053   0.0250  -0.0024  -0.0074   0.0080   0.39  303.2
2019/09/12 04:57:05.400   35.639392548  139.296339598   218.9855   1  15   0.0060   0.0053   0.0250  -0.0024  -0.0075   0.0080   0.39  303.6
2019/09/12 04:57:05.600   35.639392646  139.296339279   218.9817   1  15   0.0058   0.0054   0.0249  -0.0025  -0.0074   0.0081   0.19  305.4
2019/09/12 04:57:05.800   35.639392682  139.296338714   218.9870   1  15   0.0055   0.0052   0.0250  -0.0019  -0.0074   0.0081   0.39  310.4
2019/09/12 04:57:06.000   35.639392122  139.296338075   218.9897   2  17   0.0056   0.0052   0.0251  -0.0023  -0.0074   0.0080   0.39    2.2
2019/09/12 04:57:06.200   35.639391667  139.296337871   218.9754   1  17   0.0045   0.0048   0.0164  -0.0011  -0.0057   0.0017   0.19    3.8
2019/09/12 04:57:06.400   35.639391627  139.296337636   218.9655   1  17   0.0047   0.0051   0.0164   0.0011  -0.0056   0.0018   0.39    5.4
2019/09/12 04:57:06.600   35.639391788  139.296337282   218.9599   1  17   0.0046   0.0051   0.0158   0.0010  -0.0055  -0.0004   0.39    5.1
2019/09/12 04:57:06.800   35.639391872  139.296336967   218.9551   1  17   0.0041   0.0050   0.0158   0.0020  -0.0053  -0.0011   0.19    8.9
2019/09/12 04:57:07.000   35.639391844  139.296336705   218.9405   1  17   0.0049   0.0049   0.0187  -0.0009  -0.0060   0.0045   0.19    8.6
2019/09/12 04:57:07.200   35.639391908  139.296336498   218.9290   1  17   0.0052   0.0051   0.0187  -0.0012  -0.0062   0.0045   0.39    9.7
2019/09/12 04:57:07.400   35.639391930  139.296336290   218.9187   1  17   0.0051   0.0048   0.0187  -0.0010  -0.0062   0.0043   0.39   10.9
2019/09/12 04:57:07.600   35.639391644  139.296336415   218.8930   1  17   0.0049   0.0049   0.0194  -0.0015  -0.0060   0.0043   0.19   11.6
2019/09/12 04:57:07.800   35.639391032  139.296336888   218.8575   1  17   0.0051   0.0049   0.0194  -0.0009  -0.0060   0.0043   0.39   12.7
2019/09/12 04:57:08.000   35.639390650  139.296337348   218.8160   1  17   0.0052   0.0051   0.0194   0.0009  -0.0059   0.0041   0.39   13.8
2019/09/12 04:57:08.200   35.639390660  139.296337465   218.8264   1  17   0.0051   0.0051   0.0193   0.0007  -0.0060   0.0042   0.19   20.9
2019/09/12 04:57:08.400   35.639390857  139.296337321   218.8706   1  17   0.0042   0.0048   0.0162   0.0017  -0.0053  -0.0019   0.19    3.8
2019/09/12 04:57:08.600   35.639391190  139.296337193   218.8906   1  17   0.0045   0.0048   0.0162  -0.0005  -0.0054  -0.0016   0.19   17.5
2019/09/12 04:57:08.800   35.639391534  139.296336764   218.9396   1  17   0.0047   0.0048   0.0194   0.0008  -0.0059   0.0042   0.19   41.6
2019/09/12 04:57:09.000   35.639391793  139.296336524   218.9366   1  17   0.0053   0.0051   0.0187  -0.0014  -0.0061   0.0043   0.19    4.4
2019/09/12 04:57:09.200   35.639391919  139.296336336   218.9313   1  17   0.0046   0.0050   0.0187   0.0003  -0.0060   0.0044   0.19   13.5
2019/09/12 04:57:09.400   35.639391855  139.296336401   218.9377   1  17   0.0050   0.0051   0.0187  -0.0010  -0.0061   0.0044   0.19   22.0
2019/09/12 04:57:09.600   35.639391479  139.296336692   218.9345   1  17   0.0052   0.0047   0.0186   0.0004  -0.0063   0.0045   0.19    3.1
2019/09/12 04:57:09.800   35.639391102  139.296337500   218.9459   1  17   0.0052   0.0050   0.0186  -0.0004  -0.0062   0.0043   0.19   38.6
2019/09/12 04:57:10.000   35.639390891  139.296338031   218.9671   1  17   0.0052   0.0051   0.0187  -0.0014  -0.0061   0.0043   0.19   46.8
2019/09/12 04:57:10.200   35.639390732  139.296338264   218.9741   1  17   0.0049   0.0052   0.0187  -0.0015  -0.0061   0.0044   0.39   54.9
2019/09/12 04:57:10.400   35.639390544  139.296338247   218.9685   1  17   0.0050   0.0053   0.0187  -0.0016  -0.0061   0.0045   0.39   62.5
2019/09/12 04:57:10.600   35.639390455  139.296338291   218.9555   1  17   0.0047   0.0051   0.0187  -0.0009  -0.0061   0.0046   0.19   70.0
2019/09/12 04:57:10.800   35.639390353  139.296338280   218.9602   1  17   0.0050   0.0051   0.0186   0.0006  -0.0062   0.0042   0.19   76.8
2019/09/12 04:57:11.000   35.639390302  139.296338301   218.9596   1  17   0.0047   0.0051   0.0187  -0.0005  -0.0060   0.0043   0.19   83.2
2019/09/12 04:57:11.200   35.639390268  139.296338365   218.9528   1  17   0.0047   0.0051   0.0187   0.0006  -0.0061   0.0044   0.19   89.3
2019/09/12 04:57:11.400   35.639390202  139.296338428   218.9568   1  17   0.0051   0.0050   0.0186  -0.0009  -0.0061   0.0043   0.19   95.7
2019/09/12 04:57:11.600   35.639390130  139.296338467   218.9476   1  17   0.0051   0.0048   0.0187  -0.0011  -0.0062   0.0044   0.19  101.4
2019/09/12 04:57:11.800   35.639390088  139.296338491   218.9529   1  17   0.0050   0.0049   0.0186  -0.0015  -0.0061   0.0043   0.19  106.4
2019/09/12 04:57:12.000   35.639390040  139.296338504   218.9586   1  17   0.0047   0.0050   0.0188  -0.0014  -0.0060   0.0046   0.19  111.9
2019/09/12 04:57:12.200   35.639389982  139.296338497   218.9604   1  17   0.0048   0.0048   0.0187   0.0008  -0.0062   0.0044   0.19  116.7
2019/09/12 04:57:12.400   35.639389897  139.296338468   218.9541   1  17   0.0050   0.0049   0.0187   0.0008  -0.0061   0.0044   0.19  122.0
2019/09/12 04:57:12.600   35.639389814  139.296338438   218.9534   1  17   0.0053   0.0051   0.0187  -0.0020  -0.0060   0.0044   0.19  126.4
2019/09/12 04:57:12.800   35.639389723  139.296338339   218.9484   1  17   0.0051   0.0050   0.0186  -0.0013  -0.0061   0.0042   0.19  131.0
2019/09/12 04:57:13.000   35.639389700  139.296338169   218.9392   1  17   0.0046   0.0051   0.0187  -0.0006  -0.0060   0.0044   0.19  134.0
2019/09/12 04:57:13.200   35.639389615  139.296338023   218.9378   1  17   0.0049   0.0046   0.0187   0.0004  -0.0061   0.0043   0.19  136.5
2019/09/12 04:57:13.400   35.639389486  139.296338010   218.9381   2  17   0.0052   0.0049   0.0194   0.0011  -0.0061   0.0043   0.19    2.6
2019/09/12 04:57:13.600   35.639389488  139.296337807   218.9275   1  17   0.0050   0.0044   0.0192   0.0013  -0.0063   0.0043   0.19    4.2
2019/09/12 04:57:13.800   35.639389698  139.296337577   218.9356   1  17   0.0049   0.0044   0.0192   0.0006  -0.0064   0.0045   0.19    5.6
2019/09/12 04:57:14.000   35.639389964  139.296337483   218.9327   1  17   0.0047   0.0047   0.0186   0.0011  -0.0064   0.0044   0.19    6.8
2019/09/12 04:57:14.200   35.639390140  139.296337441   218.9353   1  17   0.0053   0.0049   0.0185  -0.0018  -0.0065   0.0045   0.19    7.9
2019/09/12 04:57:14.400   35.639390054  139.296337516   218.9341   1  17   0.0049   0.0047   0.0186   0.0012  -0.0062   0.0044   0.19    9.0
2019/09/12 04:57:14.600   35.639389782  139.296337767   218.9316   1  17   0.0050   0.0047   0.0186   0.0013  -0.0063   0.0043   0.19   10.1
2019/09/12 04:57:14.800   35.639389682  139.296337906   218.9309   1  17   0.0052   0.0046   0.0186   0.0008  -0.0063   0.0044   0.19   11.2
2019/09/12 04:57:15.000   35.639389658  139.296337962   218.9339   1  17   0.0049   0.0048   0.0192  -0.0014  -0.0063   0.0045   0.19   12.6
2019/09/12 04:57:15.200   35.639389643  139.296337959   218.9374   1  17   0.0048   0.0048   0.0192  -0.0006  -0.0063   0.0044   0.19   13.7
2019/09/12 04:57:15.400   35.639389691  139.296337973   218.9356   1  17   0.0053   0.0048   0.0192  -0.0015  -0.0064   0.0044   0.19   14.9
2019/09/12 04:57:15.600   35.639389839  139.296337850   218.9435   1  17   0.0049   0.0046   0.0192  -0.0008  -0.0064   0.0044   0.39   19.3
2019/09/12 04:57:15.800   35.639390122  139.296337744   218.9395   1  17   0.0045   0.0042   0.0186   0.0015  -0.0064   0.0045   0.39   22.9
2019/09/12 04:57:16.000   35.639390270  139.296337733   218.9539   1  17   0.0050   0.0049   0.0186  -0.0008  -0.0061   0.0043   0.19   27.2
2019/09/12 04:57:16.200   35.639390317  139.296337729   218.9608   1  17   0.0047   0.0047   0.0186  -0.0008  -0.0064   0.0047   0.19   31.6
2019/09/12 04:57:16.400   35.639389548  139.296338002   218.9418   1  17   0.0049   0.0045   0.0185   0.0010  -0.0064   0.0045   0.19   35.5
2019/09/12 04:57:16.600   35.639388977  139.296338481   218.8500   1  17   0.0053   0.0047   0.0186  -0.0013  -0.0064   0.0044   0.19   40.9
2019/09/12 04:57:16.800   35.639388821  139.296338735   218.8573   2  17   0.0050   0.0053   0.0195  -0.0002  -0.0059   0.0044   0.39    2.9
2019/09/12 04:57:17.000   35.639388972  139.296338618   218.8715   1  17   0.0045   0.0049   0.0158   0.0009  -0.0055  -0.0010   0.39    4.6
2019/09/12 04:57:17.200   35.639389220  139.296338292   218.9205   1  17   0.0046   0.0045   0.0156   0.0014  -0.0057  -0.0004   0.19    6.1
2019/09/12 04:57:17.400   35.639389442  139.296337987   218.9440   1  17   0.0046   0.0044   0.0187  -0.0006  -0.0063   0.0045   0.39   47.0
2019/09/12 04:57:17.600   35.639389661  139.296337695   218.9559   1  17   0.0052   0.0047   0.0186  -0.0003  -0.0064   0.0045   0.39   47.3
2019/09/12 04:57:17.800   35.639389999  139.296337404   218.9575   1  17   0.0052   0.0047   0.0187   0.0009  -0.0063   0.0044   0.59   47.6
2019/09/12 04:57:18.000   35.639390428  139.296336839   218.9344   1  17   0.0051   0.0047   0.0186  -0.0011  -0.0063   0.0044   0.39   48.1
2019/09/12 04:57:18.200   35.639390872  139.296336199   218.9110   1  17   0.0045   0.0048   0.0187  -0.0007  -0.0061   0.0045   0.19   48.8
2019/09/12 04:57:18.400   35.639391323  139.296335602   218.9170   1  17   0.0049   0.0050   0.0186   0.0006  -0.0064   0.0048   0.19   49.6
2019/09/12 04:57:18.600   35.639391673  139.296335118   218.9004   1  17   0.0047   0.0048   0.0192  -0.0010  -0.0063   0.0044   0.19   52.2
2019/09/12 04:57:18.800   35.639391994  139.296334790   218.8964   1  17   0.0049   0.0049   0.0192  -0.0011  -0.0064   0.0044   0.39   53.5
2019/09/12 04:57:19.000   35.639392185  139.296334651   218.8931   2  17   0.0051   0.0046   0.0193   0.0010  -0.0063   0.0043   0.39    2.6
2019/09/12 04:57:19.200   35.639392155  139.296334724   218.8803   1  17   0.0046   0.0044   0.0161   0.0014  -0.0056  -0.0015   0.19    4.1
2019/09/12 04:57:19.400   35.639392108  139.296334847   218.8851   1  17   0.0046   0.0046   0.0161   0.0010  -0.0056  -0.0001   0.39    5.6
2019/09/12 04:57:19.600   35.639392075  139.296334929   218.8945   1  17   0.0041   0.0046   0.0162   0.0014  -0.0054  -0.0016   0.39    7.2
2019/09/12 04:57:19.800   35.639391983  139.296335028   218.8879   1  17   0.0048   0.0047   0.0161  -0.0007  -0.0055  -0.0019   0.19    8.8
2019/09/12 04:57:20.000   35.639391900  139.296335116   218.8920   1  17   0.0042   0.0048   0.0162   0.0011  -0.0054  -0.0017   0.39   10.5
2019/09/12 04:57:20.200   35.639391767  139.296335195   218.8928   1  17   0.0049   0.0043   0.0161   0.0012  -0.0057  -0.0017   0.39   12.1
2019/09/12 04:57:20.400   35.639391678  139.296335247   218.8926   1  17   0.0048   0.0045   0.0161   0.0012  -0.0057  -0.0013   0.19   13.9
2019/09/12 04:57:20.600   35.639391634  139.296335309   218.8870   1  17   0.0047   0.0047   0.0161   0.0006  -0.0057  -0.0018   0.39   15.5
2019/09/12 04:57:20.800   35.639391632  139.296335356   218.9002   1  17   0.0042   0.0045   0.0161   0.0017  -0.0057  -0.0010   0.39   17.1
2019/09/12 04:57:21.000   35.639391631  139.296335367   218.9030   1  17   0.0042   0.0046   0.0161   0.0019  -0.0056  -0.0009   0.19   18.6
2019/09/12 04:57:21.200   35.639391584  139.296335374   218.8991   1  17   0.0045   0.0046   0.0161   0.0017  -0.0055  -0.0011   0.19   26.5
2019/09/12 04:57:21.400   35.639391495  139.296335454   218.9039   1  17   0.0049   0.0042   0.0161   0.0009  -0.0057   0.0006   0.19   34.4
2019/09/12 04:57:21.600   35.639391459  139.296335494   218.9025   1  17   0.0041   0.0045   0.0161   0.0018  -0.0056  -0.0017   0.19   42.4
2019/09/12 04:57:21.800   35.639391404  139.296335503   218.9014   1  17   0.0050   0.0046   0.0160   0.0017  -0.0057  -0.0016   0.19   50.4
2019/09/12 04:57:22.000   35.639391390  139.296335574   218.9070   1  17   0.0045   0.0044   0.0161   0.0020  -0.0055  -0.0014   0.19   58.5
2019/09/12 04:57:22.200   35.639391378  139.296335598   218.8998   1  17   0.0046   0.0046   0.0161  -0.0004  -0.0055  -0.0011   0.19   66.7
2019/09/12 04:57:22.400   35.639391372  139.296335628   218.9042   1  17   0.0048   0.0050   0.0161  -0.0011  -0.0055  -0.0011   0.19   74.7
2019/09/12 04:57:22.600   35.639391357  139.296335628   218.9053   1  17   0.0042   0.0046   0.0162   0.0015  -0.0054  -0.0012   0.19   83.0
2019/09/12 04:57:22.800   35.639391403  139.296335668   218.9109   1  17   0.0045   0.0049   0.0161  -0.0010  -0.0055  -0.0012   0.19   91.4
2019/09/12 04:57:23.000   35.639391497  139.296335624   218.9073   1  17   0.0044   0.0046   0.0160   0.0012  -0.0057  -0.0014   0.19   99.9
2019/09/12 04:57:23.200   35.639391641  139.296335472   218.9099   1  17   0.0045   0.0045   0.0161   0.0023  -0.0055  -0.0014   0.19  108.3
2019/09/12 04:57:23.400   35.639391761  139.296335347   218.9080   1  17   0.0043   0.0045   0.0161   0.0016  -0.0055  -0.0017   0.19  117.0
2019/09/12 04:57:23.600   35.639391894  139.296335237   218.9195   1  17   0.0047   0.0043   0.0161   0.0004  -0.0056  -0.0016   0.19  125.7
2019/09/12 04:57:23.800   35.639392056  139.296335141   218.9333   1  17   0.0044   0.0044   0.0157   0.0016  -0.0055  -0.0015   0.19    3.1
2019/09/12 04:57:24.000   35.639392177  139.296334922   218.9328   1  17   0.0043   0.0050   0.0157  -0.0003  -0.0055  -0.0007   0.19    8.5
2019/09/12 04:57:24.200   35.639392204  139.296334734   218.9285   1  17   0.0038   0.0047   0.0157   0.0018  -0.0055  -0.0006   0.19   13.9
2019/09/12 04:57:24.400   35.639392225  139.296334507   218.9228   1  17   0.0051   0.0046   0.0186  -0.0004  -0.0061   0.0043   0.19   20.5
2019/09/12 04:57:24.600   35.639392153  139.296334358   218.9188   1  17   0.0052   0.0044   0.0191   0.0005  -0.0064   0.0044   0.19  154.3
2019/09/12 04:57:24.800   35.639392050  139.296334093   218.9278   1  17   0.0050   0.0044   0.0192   0.0012  -0.0063   0.0042   0.39  159.1
2019/09/12 04:57:25.000   35.639391927  139.296333538   218.9166   1  17   0.0052   0.0038   0.0192   0.0010  -0.0064   0.0045   0.39  163.9
2019/09/12 04:57:25.200   35.639391515  139.296332392   218.9173   1  17   0.0048   0.0044   0.0191   0.0011  -0.0063   0.0043   0.19  167.1
2019/09/12 04:57:25.400   35.639390927  139.296330824   218.9422   1  17   0.0048   0.0044   0.0186   0.0019  -0.0063   0.0046   0.19   25.0
2019/09/12 04:57:25.600   35.639390838  139.296329368   218.9554   1  17   0.0049   0.0048   0.0185  -0.0002  -0.0064   0.0047   0.19   30.5
2019/09/12 04:57:25.800   35.639391112  139.296327566   218.9365   1  17   0.0051   0.0046   0.0185   0.0010  -0.0064   0.0044   0.19   35.6
2019/09/12 04:57:26.000   35.639391504  139.296324780   218.9624   2  17   0.0048   0.0051   0.0187  -0.0002  -0.0061   0.0044   0.19    2.9
2019/09/12 04:57:26.200   35.639391246  139.296322770   218.9762   1  17   0.0045   0.0050   0.0162   0.0011  -0.0051  -0.0016   0.19    4.8
2019/09/12 04:57:26.400   35.639390641  139.296320537   218.9332   1  17   0.0047   0.0051   0.0162   0.0009  -0.0053  -0.0013   0.19    6.8
2019/09/12 04:57:26.600   35.639390363  139.296317916   218.9917   1  17   0.0042   0.0049   0.0158   0.0014  -0.0052  -0.0013   0.19    8.8
2019/09/12 04:57:26.800   35.639390476  139.296315631   218.9657   1  17   0.0045   0.0050   0.0157  -0.0009  -0.0054  -0.0002   0.39   10.6
2019/09/12 04:57:27.000   35.639390888  139.296312868   218.9431   1  17   0.0042   0.0050   0.0157   0.0005  -0.0056   0.0010   0.19   12.6
2019/09/12 04:57:27.200   35.639390925  139.296310472   218.9894   1  17   0.0045   0.0050   0.0157   0.0015  -0.0053  -0.0013   0.19   14.6
2019/09/12 04:57:27.400   35.639390866  139.296308103   218.9774   1  17   0.0045   0.0050   0.0158   0.0016  -0.0053  -0.0011   0.19   16.6
2019/09/12 04:57:27.600   35.639390676  139.296305509   218.9894   1  17   0.0049   0.0048   0.0157   0.0012  -0.0054  -0.0014   0.19   18.8
2019/09/12 04:57:27.800   35.639391059  139.296303447   219.0220   1  17   0.0048   0.0051   0.0186  -0.0014  -0.0060   0.0044   0.19   59.4
2019/09/12 04:57:28.000   35.639391529  139.296301080   218.9787   1  17   0.0051   0.0048   0.0186  -0.0004  -0.0061   0.0043   0.19   62.2
2019/09/12 04:57:28.200   35.639391980  139.296298559   219.0209   1  15   0.0053   0.0056   0.0224   0.0007  -0.0027   0.0055   0.19  317.9
2019/09/12 04:57:28.400   35.639391810  139.296296040   218.9970   1  15   0.0049   0.0053   0.0210  -0.0011  -0.0045   0.0038   0.39  320.8
2019/09/12 04:57:28.600   35.639391682  139.296293406   218.9888   1  15   0.0053   0.0057   0.0225   0.0004  -0.0026   0.0054   0.39  326.0
2019/09/12 04:57:28.800   35.639391935  139.296290541   219.0486   1  15   0.0049   0.0054   0.0210  -0.0011  -0.0045   0.0038   0.19  330.3
2019/09/12 04:57:29.000   35.639392269  139.296286634   218.9811   1  17   0.0052   0.0052   0.0186  -0.0011  -0.0060   0.0044   0.19   68.6
2019/09/12 04:57:29.200   35.639392615  139.296283064   218.9960   1  17   0.0048   0.0050   0.0186  -0.0015  -0.0060   0.0043   0.19   74.8
2019/09/12 04:57:29.400   35.639392359  139.296280446   218.9780   1  17   0.0051   0.0053   0.0186  -0.0018  -0.0061   0.0045   0.19   81.9
2019/09/12 04:57:29.600   35.639392077  139.296277544   218.9913   1  17   0.0044   0.0052   0.0157   0.0009  -0.0053  -0.0012   0.19    3.1
2019/09/12 04:57:29.800   35.639392293  139.296275279   219.0220   1  17   0.0042   0.0049   0.0158   0.0004  -0.0052  -0.0012   0.19   12.6
2019/09/12 04:57:30.000   35.639392501  139.296272672   218.9819   1  17   0.0041   0.0049   0.0157   0.0017  -0.0053  -0.0013   0.19   22.3
2019/09/12 04:57:30.200   35.639392793  139.296269808   219.0203   1  17   0.0047   0.0051   0.0157   0.0005  -0.0054  -0.0013   0.19   32.4
2019/09/12 04:57:30.400   35.639392483  139.296267092   219.0096   1  17   0.0047   0.0049   0.0193   0.0005  -0.0058   0.0042   0.19  386.6
2019/09/12 04:57:30.600   35.639392038  139.296263874   218.9842   1  17   0.0046   0.0046   0.0162   0.0010  -0.0053  -0.0017   0.19   44.1
2019/09/12 04:57:30.800   35.639392076  139.296261086   219.0299   1  17   0.0050   0.0050   0.0186  -0.0010  -0.0060   0.0044   0.19  117.2
2019/09/12 04:57:31.000   35.639392171  139.296258258   218.9868   1  17   0.0051   0.0047   0.0187  -0.0009  -0.0061   0.0043   0.39  124.3
2019/09/12 04:57:31.200   35.639392430  139.296255249   218.9965   1  17   0.0045   0.0049   0.0157   0.0005  -0.0055   0.0006   0.39   53.9
2019/09/12 04:57:31.400   35.639392251  139.296252627   219.0086   1  17   0.0049   0.0047   0.0168  -0.0012  -0.0054   0.0012   0.19   65.1
2019/09/12 04:57:31.600   35.639392017  139.296249476   218.9779   1  17   0.0045   0.0047   0.0157   0.0017  -0.0054  -0.0008   0.19   70.1
2019/09/12 04:57:31.800   35.639392005  139.296246855   219.0055   1  17   0.0045   0.0046   0.0157  -0.0007  -0.0053  -0.0004   0.19   81.4
2019/09/12 04:57:32.000   35.639392097  139.296244017   218.9848   1  17   0.0043   0.0050   0.0162  -0.0007  -0.0053  -0.0015   0.39   97.3
2019/09/12 04:57:32.200   35.639392423  139.296240920   219.0036   1  17   0.0046   0.0053   0.0162   0.0012  -0.0052  -0.0019   0.39  109.6
2019/09/12 04:57:32.400   35.639392376  139.296238457   219.0206   1  17   0.0049   0.0050   0.0195  -0.0011  -0.0059   0.0043   0.59  484.5
2019/09/12 04:57:32.600   35.639392286  139.296235447   219.0126   1  17   0.0053   0.0048   0.0193  -0.0016  -0.0061   0.0043   0.39  488.9
2019/09/12 04:57:32.800   35.639392576  139.296232739   219.0364   1  17   0.0051   0.0048   0.0192  -0.0009  -0.0060   0.0043   0.19  495.0
2019/09/12 04:57:33.000   35.639392948  139.296229787   218.9973   1  15   0.0050   0.0057   0.0225   0.0012  -0.0026   0.0056   0.39  520.1
2019/09/12 04:57:33.200   35.639393486  139.296226702   219.0186   1  15   0.0052   0.0059   0.0225   0.0008  -0.0027   0.0055   0.39  520.1
2019/09/12 04:57:33.400   35.639393426  139.296223675   218.9670   1  12   0.0069   0.0058   0.0390   0.0015   0.0048   0.0127   0.19  678.1
2019/09/12 04:57:33.600   35.639393373  139.296220376   218.9662   1  12   0.0066   0.0058   0.0391   0.0018   0.0048   0.0127   0.39  675.9
2019/09/12 04:57:33.800   35.639393823  139.296217223   218.9561   1  11   0.0067   0.0081   0.0528   0.0013   0.0151   0.0119   0.39  831.2
2019/09/12 04:57:34.000   35.639394362  139.296214068   218.9932   1  12   0.0068   0.0056   0.0390   0.0022   0.0047   0.0126   0.19  680.2
2019/09/12 04:57:34.200   35.639394902  139.296210813   218.9977   1  13   0.0051   0.0061   0.0252  -0.0018   0.0048   0.0037   0.39  511.9
2019/09/12 04:57:34.400   35.639394994  139.296207958   218.9764   1  11   0.0068   0.0064   0.0426   0.0020   0.0084   0.0125   0.39  672.3
2019/09/12 04:57:34.600   35.639394824  139.296204557   218.9177   1  10   0.0069   0.0065   0.0429   0.0014   0.0081   0.0129   0.19  688.9
2019/09/12 04:57:34.800   35.639395328  139.296201487   218.9931   1  13   0.0054   0.0063   0.0252  -0.0017   0.0048   0.0037   0.39  505.7
2019/09/12 04:57:35.000   35.639395862  139.296197866   219.0325   1  15   0.0049   0.0055   0.0225   0.0015  -0.0025   0.0055   0.39    3.1
2019/09/12 04:57:35.200   35.639396043  139.296194017   219.0356   1  15   0.0051   0.0056   0.0224   0.0005  -0.0027   0.0055   0.19    9.5
2019/09/12 04:57:35.400   35.639395899  139.296190460   218.9948   2  16   0.0052   0.0056   0.0227   0.0014  -0.0022   0.0054   0.39    2.2
2019/09/12 04:57:35.600   35.639395851  139.296186889   218.9999   1  16   0.0050   0.0051   0.0194   0.0011  -0.0055   0.0051   0.19    3.5
2019/09/12 04:57:35.800   35.639396239  139.296183864   219.0008   1  17   0.0051   0.0051   0.0194   0.0008  -0.0055   0.0051   0.19    4.8
2019/09/12 04:57:36.000   35.639396663  139.296180570   218.9521   1  17   0.0045   0.0048   0.0158   0.0010  -0.0052   0.0003   0.19    3.5
2019/09/12 04:57:36.200   35.639396803  139.296177403   219.0096   1  17   0.0043   0.0052   0.0158   0.0013  -0.0052   0.0001   0.19    5.9
2019/09/12 04:57:36.400   35.639396822  139.296174395   218.9578   1  17   0.0041   0.0049   0.0158   0.0017  -0.0052  -0.0011   0.19    8.2
2019/09/12 04:57:36.600   35.639396786  139.296171032   218.9964   1  17   0.0044   0.0050   0.0158   0.0012  -0.0053  -0.0012   0.19   10.1
2019/09/12 04:57:36.800   35.639397035  139.296168076   218.9852   1  17   0.0053   0.0051   0.0187  -0.0007  -0.0060   0.0045   0.19   11.0
2019/09/12 04:57:37.000   35.639397289  139.296164668   218.9495   1  17   0.0046   0.0048   0.0157   0.0003  -0.0054  -0.0012   0.19   12.9
2019/09/12 04:57:37.200   35.639397241  139.296161836   218.9862   1  17   0.0046   0.0050   0.0157   0.0007  -0.0053  -0.0007   0.19   14.1
2019/09/12 04:57:37.400   35.639397084  139.296158694   218.9435   1  17   0.0049   0.0050   0.0157   0.0013  -0.0053  -0.0001   0.19   15.5
2019/09/12 04:57:37.600   35.639397040  139.296155421   219.0033   1  17   0.0048   0.0052   0.0156  -0.0017  -0.0055   0.0004   0.19   21.3
2019/09/12 04:57:37.800   35.639397411  139.296152662   218.9729   1  17   0.0053   0.0048   0.0194  -0.0017  -0.0059   0.0044   0.19   26.9
2019/09/12 04:57:38.000   35.639397865  139.296149385   218.9744   1  17   0.0044   0.0047   0.0158   0.0014  -0.0054   0.0008   0.19   32.9
2019/09/12 04:57:38.200   35.639398011  139.296146705   219.0045   1  17   0.0048   0.0049   0.0194   0.0015  -0.0058   0.0041   0.19   38.9
2019/09/12 04:57:38.400   35.639398005  139.296143545   218.9864   1  16   0.0048   0.0050   0.0203   0.0015  -0.0052   0.0050   0.19   44.5
2019/09/12 04:57:38.600   35.639398234  139.296140746   218.9952   1  16   0.0047   0.0054   0.0203   0.0016  -0.0050   0.0049   0.19   50.5
2019/09/12 04:57:38.800   35.639398532  139.296137787   218.9968   1  14   0.0052   0.0057   0.0238   0.0006   0.0017   0.0049   0.19   73.8
2019/09/12 04:57:39.000   35.639399136  139.296134656   218.9811   1  14   0.0051   0.0056   0.0238   0.0014   0.0020   0.0050   0.19  584.5
2019/09/12 04:57:39.200   35.639399062  139.296131714   218.9424   1  12   0.0067   0.0055   0.0389   0.0022   0.0049   0.0126   0.19  749.0
2019/09/12 04:57:39.400   35.639399062  139.296128210   218.9842   1  13   0.0051   0.0062   0.0252  -0.0016   0.0049   0.0037   0.39  577.1
2019/09/12 04:57:39.600   35.639399314  139.296125183   218.9373   1  11   0.0067   0.0065   0.0425   0.0017   0.0084   0.0125   0.39  748.3
2019/09/12 04:57:39.800   35.639399743  139.296121799   219.0166   2  13   0.0069   0.0059   0.0390   0.0016   0.0049   0.0127   0.19    3.0
2019/09/12 04:57:40.000   35.639400067  139.296118422   218.9608   1  13   0.0066   0.0056   0.0348   0.0017   0.0005   0.0120   0.19    4.7
2019/09/12 04:57:40.200   35.639399941  139.296115127   219.0005   2  16   0.0054   0.0058   0.0229   0.0007  -0.0019   0.0053   0.19    2.3
2019/09/12 04:57:40.400   35.639399843  139.296111652   219.0007   1  16   0.0051   0.0051   0.0203   0.0006  -0.0053   0.0050   0.19    3.4
2019/09/12 04:57:40.600   35.639400269  139.296108544   219.0149   1  15   0.0046   0.0054   0.0224   0.0015  -0.0025   0.0055   0.19   11.0
2019/09/12 04:57:40.800   35.639400727  139.296105053   218.9958   1  16   0.0051   0.0050   0.0203   0.0007  -0.0053   0.0050   0.19    4.6
2019/09/12 04:57:41.000   35.639400961  139.296101580   219.0087   1  15   0.0053   0.0057   0.0224   0.0007  -0.0024   0.0055   0.19   14.8
2019/09/12 04:57:41.200   35.639400978  139.296098285   218.9821   1  16   0.0054   0.0048   0.0203   0.0012  -0.0053   0.0050   0.39    5.7
2019/09/12 04:57:41.400   35.639400796  139.296094809   219.0083   2  17   0.0053   0.0053   0.0210  -0.0016  -0.0048   0.0052   0.39    2.6
2019/09/12 04:57:41.600   35.639401188  139.296091676   218.9872   1  17   0.0047   0.0049   0.0193   0.0006  -0.0058   0.0041   0.19    4.3
2019/09/12 04:57:41.800   35.639401694  139.296088102   219.0000   1  16   0.0049   0.0052   0.0203   0.0004  -0.0050   0.0049   0.19    7.9
2019/09/12 04:57:42.000   35.639401763  139.296084804   219.0062   1  17   0.0052   0.0053   0.0193  -0.0012  -0.0058   0.0041   0.19    6.0
2019/09/12 04:57:42.200   35.639401640  139.296081271   218.9787   1  17   0.0046   0.0051   0.0193   0.0016  -0.0058   0.0041   0.19    7.9
2019/09/12 04:57:42.400   35.639401798  139.296077816   219.0055   1  16   0.0051   0.0053   0.0200   0.0004  -0.0066   0.0035   0.19   11.5
2019/09/12 04:57:42.600   35.639402145  139.296074446   218.9753   1  17   0.0051   0.0052   0.0185  -0.0013  -0.0061   0.0043   0.19    3.4
2019/09/12 04:57:42.800   35.639402597  139.296070951   218.9753   1  17   0.0044   0.0048   0.0157   0.0007  -0.0054  -0.0004   0.19    3.2
2019/09/12 04:57:43.000   35.639402549  139.296067993   218.9807   1  17   0.0041   0.0047   0.0157   0.0017  -0.0054   0.0006   0.19    5.3
2019/09/12 04:57:43.200   35.639402478  139.296064766   218.9635   1  17   0.0043   0.0052   0.0157   0.0011  -0.0054  -0.0008   0.39    7.4
2019/09/12 04:57:43.400   35.639402744  139.296061777   219.0011   1  16   0.0045   0.0052   0.0170   0.0013  -0.0061  -0.0016   0.39    9.8
2019/09/12 04:57:43.600   35.639403044  139.296058564   218.9606   1  17   0.0044   0.0048   0.0156   0.0005  -0.0054  -0.0012   0.19   15.2
2019/09/12 04:57:43.800   35.639403423  139.296055196   218.9905   1  17   0.0047   0.0052   0.0157   0.0005  -0.0053  -0.0013   0.19   25.4
2019/09/12 04:57:44.000   35.639403398  139.296052196   218.9854   1  17   0.0047   0.0052   0.0186   0.0008  -0.0059   0.0043   0.19   32.7
2019/09/12 04:57:44.200   35.639403224  139.296048784   218.9815   1  17   0.0046   0.0046   0.0157   0.0012  -0.0054  -0.0011   0.19   35.9
2019/09/12 04:57:44.400   35.639403633  139.296045563   219.0068   1  17   0.0047   0.0051   0.0186   0.0002  -0.0060   0.0044   0.19   45.0
2019/09/12 04:57:44.600   35.639403951  139.296042184   218.9560   1  17   0.0052   0.0050   0.0187  -0.0016  -0.0059   0.0044   0.39   51.6
2019/09/12 04:57:44.800   35.639404085  139.296039236   219.0065   1  16   0.0050   0.0053   0.0193   0.0008  -0.0067   0.0038   0.39   68.8
2019/09/12 04:57:45.000   35.639404063  139.296036283   218.9731   1  16   0.0052   0.0052   0.0193  -0.0005  -0.0067   0.0038   0.19   75.1
2019/09/12 04:57:45.200   35.639404161  139.296033123   219.0108   1  17   0.0045   0.0048   0.0187  -0.0004  -0.0060   0.0044   0.39   67.8
2019/09/12 04:57:45.400   35.639404639  139.296030238   218.9892   1  17   0.0050   0.0050   0.0186  -0.0008  -0.0060   0.0044   0.39   73.0
2019/09/12 04:57:45.600   35.639405068  139.296027018   218.9977   1  17   0.0050   0.0050   0.0187  -0.0013  -0.0061   0.0046   0.59   76.2
2019/09/12 04:57:45.800   35.639405279  139.296024208   219.0040   1  17   0.0050   0.0049   0.0187  -0.0010  -0.0060   0.0045   0.39   82.4
2019/09/12 04:57:46.000   35.639405316  139.296021059   218.9879   1  16   0.0052   0.0053   0.0202  -0.0009  -0.0051   0.0049   0.19   89.1
2019/09/12 04:57:46.200   35.639405592  139.296018108   219.0028   1  15   0.0051   0.0056   0.0224   0.0017  -0.0026   0.0055   0.39   98.6
2019/09/12 04:57:46.400   35.639406106  139.296015100   218.9805   1  14   0.0051   0.0057   0.0238   0.0003   0.0021   0.0050   0.39  107.8
2019/09/12 04:57:46.600   35.639406612  139.296011827   219.0153   1  14   0.0049   0.0058   0.0239   0.0008   0.0019   0.0051   0.59  631.6
2019/09/12 04:57:46.800   35.639406646  139.296008718   218.9977   1  15   0.0052   0.0052   0.0210   0.0002  -0.0045   0.0038   0.39   98.4
2019/09/12 04:57:47.000   35.639406707  139.296005336   218.9922   1  14   0.0050   0.0056   0.0237   0.0012   0.0019   0.0049   0.19  120.1
2019/09/12 04:57:47.200   35.639407115  139.296002158   219.0331   1  14   0.0052   0.0058   0.0238  -0.0006   0.0015   0.0051   0.39  127.3
2019/09/12 04:57:47.400   35.639407595  139.295998823   218.9882   1  14   0.0050   0.0056   0.0238   0.0013   0.0021   0.0050   0.39  132.7
2019/09/12 04:57:47.600   35.639408109  139.295995407   218.9955   2  14   0.0048   0.0057   0.0238   0.0009   0.0021   0.0051   0.19    2.8
2019/09/12 04:57:47.800   35.639408006  139.295992482   218.9886   1  14   0.0051   0.0055   0.0216  -0.0017  -0.0033   0.0025   0.39  103.0
2019/09/12 04:57:48.000   35.639407883  139.295989150   219.0147   1  12   0.0058   0.0066   0.0220  -0.0034  -0.0051   0.0041   0.39  121.7
2019/09/12 04:57:48.200   35.639408197  139.295985970   219.0209   1  14   0.0051   0.0056   0.0215  -0.0019  -0.0031   0.0024   0.19  106.2
2019/09/12 04:57:48.400   35.639408467  139.295982472   218.9930   2  15   0.0051   0.0057   0.0210  -0.0012  -0.0037   0.0027   0.39    2.3
2019/09/12 04:57:48.600   35.639408750  139.295979235   219.0417   1  15   0.0050   0.0052   0.0189  -0.0012  -0.0057   0.0037   0.39    3.6
2019/09/12 04:57:48.800   35.639408734  139.295976004   219.0189   1  15   0.0053   0.0051   0.0197  -0.0016  -0.0054   0.0032   0.19    4.6
2019/09/12 04:57:49.000   35.639408909  139.295972633   219.0365   1  14   0.0054   0.0055   0.0202  -0.0012  -0.0043   0.0032   0.39    9.4
2019/09/12 04:57:49.200   35.639409442  139.295969201   219.0038   1  13   0.0051   0.0061   0.0219  -0.0014  -0.0045   0.0021   0.19  136.9
2019/09/12 04:57:49.400   35.639409937  139.295965178   218.9757   1  15   0.0049   0.0056   0.0163   0.0006  -0.0060  -0.0022   0.19    3.5
2019/09/12 04:57:49.600   35.639410316  139.295961677   219.0051   1  16   0.0047   0.0050   0.0157  -0.0013  -0.0052  -0.0021   0.19    5.2
2019/09/12 04:57:49.800   35.639410466  139.295958099   218.9695   1  16   0.0049   0.0052   0.0187  -0.0014  -0.0057   0.0040   0.39    7.4
2019/09/12 04:57:50.000   35.639410764  139.295954514   219.0049   1  16   0.0051   0.0053   0.0187  -0.0011  -0.0057   0.0040   0.39    8.7
2019/09/12 04:57:50.200   35.639411379  139.295951339   218.9667   2  17   0.0052   0.0050   0.0191  -0.0016  -0.0056   0.0039   0.19    2.8
2019/09/12 04:57:50.400   35.639412062  139.295947846   218.9889   1  17   0.0048   0.0051   0.0186   0.0005  -0.0059   0.0044   0.19    4.5
2019/09/12 04:57:50.600   35.639412207  139.295944828   218.9940   1  17   0.0051   0.0049   0.0186  -0.0002  -0.0059   0.0042   0.19    6.2
2019/09/12 04:57:50.800   35.639412286  139.295941258   218.9679   1  17   0.0048   0.0049   0.0186   0.0010  -0.0059   0.0044   0.19    7.8
2019/09/12 04:57:51.000   35.639412707  139.295938193   219.0080   1  17   0.0051   0.0049   0.0185  -0.0012  -0.0060   0.0043   0.19    9.4
2019/09/12 04:57:51.200   35.639413153  139.295935069   218.9687   1  17   0.0044   0.0049   0.0186   0.0011  -0.0059   0.0043   0.19   10.9
2019/09/12 04:57:51.400   35.639413702  139.295931773   219.0132   2  17   0.0049   0.0053   0.0189   0.0006  -0.0058   0.0042   0.39    2.7
2019/09/12 04:57:51.600   35.639413648  139.295928732   218.9864   1  17   0.0046   0.0050   0.0186  -0.0017  -0.0060   0.0044   0.39   13.4
2019/09/12 04:57:51.800   35.639413708  139.295925452   219.0069   1  16   0.0048   0.0054   0.0195  -0.0014  -0.0050   0.0045   0.19   15.3
2019/09/12 04:57:52.000   35.639414261  139.295922391   218.9910   1  16   0.0054   0.0053   0.0194  -0.0018  -0.0055   0.0036   0.19   18.2
2019/09/12 04:57:52.200   35.639414709  139.295918909   218.9949   1  14   0.0051   0.0059   0.0213  -0.0009  -0.0025   0.0050   0.19   28.5
2019/09/12 04:57:52.400   35.639414914  139.295915959   219.0189   1  15   0.0048   0.0053   0.0210  -0.0007  -0.0043   0.0037   0.39   19.9
2019/09/12 04:57:52.600   35.639414911  139.295912571   218.9999   1  13   0.0053   0.0066   0.0257  -0.0012   0.0039   0.0025   0.19  742.1
2019/09/12 04:57:52.800   35.639414950  139.295909102   218.9990   1  13   0.0053   0.0059   0.0226  -0.0015   0.0022   0.0043   0.39   34.6
2019/09/12 04:57:53.000   35.639415295  139.295905697   218.9881   1  15   0.0052   0.0055   0.0224   0.0018  -0.0023   0.0054   0.39   21.3
2019/09/12 04:57:53.200   35.639415663  139.295902013   219.0069   1  15   0.0050   0.0054   0.0209   0.0018  -0.0036   0.0054   0.19   19.6
2019/09/12 04:57:53.400   35.639415687  139.295898670   219.0280   2  16   0.0050   0.0057   0.0225   0.0008  -0.0019   0.0054   0.19    1.9
2019/09/12 04:57:53.600   35.639415663  139.295895285   218.9759   2  16   0.0052   0.0058   0.0211   0.0010  -0.0049   0.0043   0.19    2.7
2019/09/12 04:57:53.800   35.639415908  139.295891971   219.0034   1  17   0.0046   0.0048   0.0186   0.0009  -0.0059   0.0043   0.19    3.6
2019/09/12 04:57:54.000   35.639416349  139.295888774   218.9678   1  17   0.0049   0.0051   0.0186  -0.0011  -0.0059   0.0043   0.39    4.6
2019/09/12 04:57:54.200   35.639416837  139.295885378   219.0120   1  16   0.0052   0.0052   0.0195   0.0015  -0.0053   0.0050   0.39    5.0
2019/09/12 04:57:54.400   35.639416949  139.295882204   218.9900   1  17   0.0051   0.0050   0.0186  -0.0016  -0.0059   0.0043   0.19    6.1
2019/09/12 04:57:54.600   35.639416901  139.295878676   218.9810   1  15   0.0054   0.0059   0.0214   0.0021  -0.0063   0.0034   0.19    7.9
2019/09/12 04:57:54.800   35.639417305  139.295875377   219.0110   1  16   0.0052   0.0053   0.0186  -0.0018  -0.0057   0.0040   0.19    7.4
2019/09/12 04:57:55.000   35.639417814  139.295872011   218.9744   1  15   0.0053   0.0052   0.0195  -0.0005  -0.0051   0.0048   0.19    7.9
2019/09/12 04:57:55.200   35.639418114  139.295868693   218.9798   1  16   0.0051   0.0050   0.0194  -0.0017  -0.0055   0.0038   0.19   10.2
2019/09/12 04:57:55.400   35.639418188  139.295865578   218.9656   1  15   0.0049   0.0052   0.0205  -0.0009  -0.0046   0.0046   0.19   11.0
2019/09/12 04:57:55.600   35.639418195  139.295862235   218.9661   1  13   0.0055   0.0074   0.0244  -0.0020   0.0049   0.0030   0.19   27.5
2019/09/12 04:57:55.800   35.639418772  139.295859043   218.9902   1  12   0.0058   0.0082   0.0260   0.0029  -0.0033  -0.0014   0.19   35.0
2019/09/12 04:57:56.000   35.639419193  139.295855585   218.9951   1  13   0.0054   0.0068   0.0237   0.0016  -0.0032   0.0039   0.19   62.4
2019/09/12 04:57:56.200   35.639419392  139.295852160   218.9952   1  12   0.0058   0.0069   0.0265   0.0010   0.0037  -0.0025   0.19  604.5
2019/09/12 04:57:56.400   35.639419373  139.295848749   219.0071   1   9   0.0069   0.0090   0.0297   0.0044  -0.0078  -0.0073   0.19  800.1
2019/09/12 04:57:56.600   35.639419657  139.295845129   218.9713   1  12   0.0055   0.0064   0.0258  -0.0018   0.0056   0.0021   0.19  576.7
2019/09/12 04:57:56.800   35.639420012  139.295841467   219.0067   1  10   0.0059   0.0071   0.0270   0.0011   0.0026  -0.0033   0.19  684.0
2019/09/12 04:57:57.000   35.639420341  139.295837802   218.9658   2  14   0.0053   0.0059   0.0231  -0.0011   0.0025   0.0047   0.19    2.8
2019/09/12 04:57:57.200   35.639420364  139.295834365   218.9794   1  13   0.0053   0.0066   0.0232   0.0008  -0.0011   0.0046   0.19    5.1
2019/09/12 04:57:57.400   35.639420313  139.295830739   218.9914   1  11   0.0066   0.0088   0.0267   0.0048  -0.0086  -0.0056   0.19    7.4
2019/09/12 04:57:57.600   35.639420618  139.295827576   218.9948   2  14   0.0053   0.0066   0.0233   0.0009  -0.0005   0.0046   0.19    1.8
2019/09/12 04:57:57.800   35.639421088  139.295824158   218.9812   2  15   0.0053   0.0063   0.0221   0.0011  -0.0040   0.0043   0.19    2.5
2019/09/12 04:57:58.000   35.639421353  139.295820900   218.9729   1  16   0.0049   0.0050   0.0202  -0.0006  -0.0052   0.0051   0.19    3.4
2019/09/12 04:57:58.200   35.639421345  139.295817798   218.9773   1  16   0.0048   0.0051   0.0203   0.0010  -0.0050   0.0050   0.19    4.4
2019/09/12 04:57:58.400   35.639421275  139.295814329   218.9885   1  15   0.0048   0.0054   0.0208   0.0022  -0.0059   0.0044   0.19    6.0
2019/09/12 04:57:58.600   35.639421618  139.295811098   218.9738   1  16   0.0053   0.0050   0.0202  -0.0007  -0.0052   0.0050   0.19    6.2
2019/09/12 04:57:58.800   35.639421980  139.295807710   218.9894   2  15   0.0051   0.0058   0.0225  -0.0007  -0.0018   0.0053   0.19    2.9
2019/09/12 04:57:59.000   35.639422079  139.295804355   219.0106   1  13   0.0052   0.0059   0.0225  -0.0005   0.0024   0.0042   0.19    4.5
2019/09/12 04:57:59.200   35.639422109  139.295801031   218.9718   1  13   0.0055   0.0067   0.0232   0.0007  -0.0010   0.0045   0.19   22.2
2019/09/12 04:57:59.400   35.639422077  139.295797503   218.9756   1  14   0.0052   0.0060   0.0231  -0.0013   0.0025   0.0048   0.39   21.3
2019/09/12 04:57:59.600   35.639422412  139.295793883   218.9686   1  15   0.0052   0.0057   0.0224   0.0006  -0.0023   0.0055   0.39   10.2
2019/09/12 04:57:59.800   35.639422734  139.295790304   218.9792   2  16   0.0054   0.0057   0.0227   0.0007  -0.0019   0.0054   0.59    1.9
2019/09/12 04:58:00.000   35.639422700  139.295786934   218.9806   2  17   0.0049   0.0054   0.0216   0.0015  -0.0035   0.0050   0.39    2.3
2019/09/12 04:58:00.200   35.639422582  139.295783431   218.9705   1  15   0.0053   0.0053   0.0204  -0.0012  -0.0047   0.0047   0.19    3.4
2019/09/12 04:58:00.400   35.639422784  139.295779874   218.9905   1  17   0.0047   0.0049   0.0193  -0.0010  -0.0058   0.0042   0.39    3.8
2019/09/12 04:58:00.600   35.639422865  139.295776446   218.9750   2  17   0.0050   0.0052   0.0202  -0.0003  -0.0050   0.0046   0.39    2.5
2019/09/12 04:58:00.800   35.639423203  139.295773137   218.9850   1  17   0.0049   0.0050   0.0193  -0.0006  -0.0058   0.0042   0.59    6.2
2019/09/12 04:58:01.000   35.639423265  139.295770147   218.9595   1  17   0.0051   0.0051   0.0192  -0.0017  -0.0059   0.0042   0.39    7.0
2019/09/12 04:58:01.200   35.639423408  139.295766749   218.9917   1  16   0.0044   0.0051   0.0203   0.0018  -0.0049   0.0048   0.19    7.4
2019/09/12 04:58:01.400   35.639423763  139.295763447   218.9707   1  17   0.0049   0.0049   0.0192  -0.0007  -0.0059   0.0044   0.19    8.7
2019/09/12 04:58:01.600   35.639424189  139.295759969   218.9669   1  16   0.0051   0.0052   0.0202  -0.0005  -0.0051   0.0049   0.19    8.8
2019/09/12 04:58:01.800   35.639424239  139.295756640   218.9878   1  17   0.0049   0.0050   0.0193  -0.0003  -0.0057   0.0041   0.39   10.1
2019/09/12 04:58:02.000   35.639424062  139.295752958   218.9593   1  16   0.0050   0.0052   0.0200   0.0009  -0.0065   0.0033   0.39   12.1
2019/09/12 04:58:02.200   35.639424102  139.295749470   218.9836   1  17   0.0050   0.0049   0.0192  -0.0003  -0.0059   0.0042   0.19   11.7
2019/09/12 04:58:02.400   35.639424162  139.295746083   218.9415   1  17   0.0049   0.0050   0.0193   0.0012  -0.0058   0.0043   0.39   12.5
2019/09/12 04:58:02.600   35.639424383  139.295742479   218.9710   2  17   0.0050   0.0052   0.0197  -0.0014  -0.0055   0.0042   0.39    2.6
2019/09/12 04:58:02.800   35.639424296  139.295739350   218.9556   1  17   0.0047   0.0050   0.0192  -0.0003  -0.0058   0.0043   0.19   14.1
2019/09/12 04:58:03.000   35.639424262  139.295735896   218.9718   1  17   0.0049   0.0048   0.0193  -0.0007  -0.0057   0.0041   0.39   14.9
2019/09/12 04:58:03.200   35.639424517  139.295732683   218.9830   1  17   0.0048   0.0047   0.0193  -0.0008  -0.0058   0.0042   0.39   15.7
2019/09/12 04:58:03.400   35.639424787  139.295729364   218.9620   1  16   0.0053   0.0050   0.0202   0.0015  -0.0052   0.0050   0.19   15.3
2019/09/12 04:58:03.600   35.639424843  139.295726308   218.9986   1  16   0.0050   0.0052   0.0202   0.0010  -0.0050   0.0049   0.19   15.9
2019/09/12 04:58:03.800   35.639424959  139.295723061   218.9643   1  16   0.0048   0.0050   0.0203   0.0017  -0.0049   0.0049   0.19   16.8
2019/09/12 04:58:04.000   35.639425024  139.295719579   218.9936   2  16   0.0050   0.0052   0.0204   0.0008  -0.0051   0.0050   0.19    2.6
2019/09/12 04:58:04.200   35.639425420  139.295716440   218.9850   1  16   0.0054   0.0050   0.0193  -0.0012  -0.0054   0.0051   0.19    4.2
2019/09/12 04:58:04.400   35.639425689  139.295713067   218.9882   2  17   0.0048   0.0052   0.0199   0.0019  -0.0049   0.0049   0.19    2.2
2019/09/12 04:58:04.600   35.639425550  139.295709912   218.9919   1  16   0.0049   0.0052   0.0194   0.0010  -0.0053   0.0050   0.39    7.7
2019/09/12 04:58:04.800   35.639425315  139.295706638   218.9756   1  17   0.0049   0.0050   0.0186  -0.0005  -0.0058   0.0043   0.39    3.4
2019/09/12 04:58:05.000   35.639425453  139.295703373   219.0095   1  16   0.0051   0.0051   0.0193   0.0007  -0.0054   0.0050   0.19   10.7
2019/09/12 04:58:05.200   35.639425673  139.295700307   218.9738   1  16   0.0051   0.0049   0.0193   0.0012  -0.0055   0.0051   0.19   12.4
2019/09/12 04:58:05.400   35.639426010  139.295696934   218.9948   1  16   0.0050   0.0053   0.0193  -0.0015  -0.0054   0.0051   0.19   13.9
2019/09/12 04:58:05.600   35.639426068  139.295693768   218.9772   1  17   0.0045   0.0049   0.0185   0.0015  -0.0059   0.0043   0.19    4.7
2019/09/12 04:58:05.800   35.639425894  139.295690471   218.9909   1  16   0.0050   0.0054   0.0194  -0.0017  -0.0053   0.0051   0.19   17.2
2019/09/12 04:58:06.000   35.639426054  139.295687302   219.0032   1  17   0.0047   0.0051   0.0185   0.0009  -0.0058   0.0042   0.19    6.1
2019/09/12 04:58:06.200   35.639426407  139.295684035   218.9666   1  17   0.0047   0.0047   0.0185   0.0014  -0.0059   0.0043   0.19    7.3
2019/09/12 04:58:06.400   35.639426435  139.295680748   219.0002   1  17   0.0047   0.0049   0.0185  -0.0008  -0.0059   0.0043   0.19    8.6
2019/09/12 04:58:06.600   35.639426159  139.295677680   218.9864   1  17   0.0048   0.0051   0.0186   0.0007  -0.0058   0.0042   0.19   12.4
2019/09/12 04:58:06.800   35.639425694  139.295674316   218.9811   1  17   0.0053   0.0050   0.0185   0.0006  -0.0060   0.0042   0.39   15.9
2019/09/12 04:58:07.000   35.639425794  139.295671129   218.9800   1  17   0.0044   0.0051   0.0193   0.0009  -0.0057   0.0042   0.39   20.0
2019/09/12 04:58:07.200   35.639425747  139.295667814   218.9944   1  16   0.0046   0.0052   0.0194   0.0018  -0.0053   0.0050   0.19   34.3
2019/09/12 04:58:07.400   35.639425328  139.295664564   219.0054   1  17   0.0050   0.0050   0.0185  -0.0013  -0.0059   0.0042   0.19   23.3
2019/09/12 04:58:07.600   35.639424820  139.295661451   218.9772   1  16   0.0050   0.0051   0.0194   0.0016  -0.0053   0.0051   0.39   42.1
2019/09/12 04:58:07.800   35.639424351  139.295658252   218.9847   1  17   0.0050   0.0051   0.0186  -0.0012  -0.0059   0.0042   0.39   26.7
2019/09/12 04:58:08.000   35.639424164  139.295654982   218.9595   1  17   0.0048   0.0048   0.0185   0.0009  -0.0060   0.0042   0.19   30.2
2019/09/12 04:58:08.200   35.639423991  139.295651428   218.9836   1  16   0.0046   0.0049   0.0194   0.0021  -0.0052   0.0049   0.19   53.1
2019/09/12 04:58:08.400   35.639423288  139.295648304   218.9641   1  17   0.0047   0.0049   0.0192   0.0006  -0.0056   0.0040   0.19   34.9
2019/09/12 04:58:08.600   35.639422461  139.295644849   218.9670   1  14   0.0051   0.0059   0.0199  -0.0005  -0.0060   0.0044   0.19   63.4
2019/09/12 04:58:08.800   35.639422055  139.295641554   218.9931   1  16   0.0051   0.0053   0.0199   0.0012  -0.0064   0.0034   0.19   42.7
2019/09/12 04:58:09.000   35.639421564  139.295638141   218.9632   1  14   0.0053   0.0058   0.0208   0.0004  -0.0057   0.0043   0.19   74.4
2019/09/12 04:58:09.200   35.639421201  139.295634947   218.9789   1  15   0.0052   0.0052   0.0195  -0.0004  -0.0050   0.0046   0.19   60.9
2019/09/12 04:58:09.400   35.639420538  139.295631778   218.9668   1  15   0.0051   0.0058   0.0200  -0.0018  -0.0064   0.0033   0.39   46.6
2019/09/12 04:58:09.600   35.639419670  139.295628465   218.9333   1  10   0.0068   0.0070   0.0421   0.0024   0.0085   0.0121   0.19  710.3
2019/09/12 04:58:09.800   35.639419299  139.295624971   218.9639   1  14   0.0052   0.0058   0.0202  -0.0015  -0.0063   0.0025   0.19   54.3
2019/09/12 04:58:10.000   35.639418845  139.295621472   218.9480   1  10   0.0065   0.0067   0.0336   0.0014   0.0031   0.0105   0.19   83.6
2019/09/12 04:58:10.200   35.639418208  139.295618248   218.9342   1  10   0.0068   0.0071   0.0420   0.0027   0.0085   0.0121   0.19  713.7
2019/09/12 04:58:10.400   35.639417504  139.295615030   218.9529   1  10   0.0066   0.0071   0.0421   0.0024   0.0085   0.0121   0.19  716.5
2019/09/12 04:58:10.600   35.639416704  139.295611662   218.9619   1  10   0.0058   0.0070   0.0269   0.0014   0.0028  -0.0034   0.19  589.0
2019/09/12 04:58:10.800   35.639416370  139.295608197   218.9806   1   7   0.0102   0.0089   0.0570   0.0068   0.0156   0.0196   0.19  999.9
2019/09/12 04:58:11.000   35.639415726  139.295604618   218.8523   1   8   0.0070   0.0072   0.0451   0.0026   0.0076   0.0110   0.19  737.7
2019/09/12 04:58:11.200   35.639414897  139.295601420   218.9782   1   8   0.0069   0.0072   0.0451   0.0028   0.0076   0.0109   0.19  735.2
2019/09/12 04:58:11.400   35.639413941  139.295598040   218.9233   1   8   0.0071   0.0072   0.0451   0.0025   0.0076   0.0110   0.19  733.0
2019/09/12 04:58:11.600   35.639413214  139.295594704   218.9846   1  10   0.0065   0.0083   0.0315  -0.0033   0.0090  -0.0078   0.19  586.8
2019/09/12 04:58:11.800   35.639412598  139.295591118   218.9196   1   8   0.0068   0.0071   0.0451   0.0028   0.0077   0.0110   0.19  735.3
2019/09/12 04:58:12.000   35.639411814  139.295587864   218.9772   1  10   0.0059   0.0070   0.0269   0.0011   0.0029  -0.0035   0.19  572.9
2019/09/12 04:58:12.200   35.639410762  139.295584543   218.9211   1   8   0.0105   0.0094   0.1195  -0.0004   0.0174  -0.0270   0.19  753.9
2019/09/12 04:58:12.400   35.639409734  139.295581040   218.9861   1  10   0.0066   0.0083   0.0315  -0.0033   0.0090  -0.0078   0.19  584.7
2019/09/12 04:58:12.600   35.639408728  139.295577446   218.9547   2  14   0.0066   0.0083   0.0315  -0.0033   0.0090  -0.0078   0.19    2.1
2019/09/12 04:58:12.800   35.639407917  139.295573884   218.9637   2  16   0.0054   0.0065   0.0253   0.0018   0.0012   0.0017   0.19    2.4
2019/09/12 04:58:13.000   35.639406723  139.295570658   218.9563   1  16   0.0049   0.0052   0.0205   0.0009  -0.0045   0.0041   0.19    3.6
2019/09/12 04:58:13.200   35.639405485  139.295567183   218.9556   2  16   0.0051   0.0060   0.0229   0.0019  -0.0042   0.0027   0.19    2.0
2019/09/12 04:58:13.400   35.639404625  139.295563815   218.9885   1  17   0.0048   0.0050   0.0185   0.0005  -0.0060   0.0043   0.39    3.1
2019/09/12 04:58:13.600   35.639403768  139.295560230   218.9776   1  16   0.0050   0.0054   0.0193   0.0012  -0.0065   0.0035   0.39    4.1
2019/09/12 04:58:13.800   35.639402708  139.295557089   218.9862   1  15   0.0052   0.0057   0.0192  -0.0012  -0.0065   0.0036   0.19    4.9
2019/09/12 04:58:14.000   35.639401371  139.295553759   218.9678   1  15   0.0050   0.0058   0.0192  -0.0010  -0.0066   0.0038   0.39    5.8
2019/09/12 04:58:14.200   35.639400021  139.295550585   218.9983   1  13   0.0053   0.0059   0.0203   0.0018  -0.0074   0.0001   0.39    6.6
2019/09/12 04:58:14.400   35.639398973  139.295547030   218.9736   1  13   0.0059   0.0058   0.0208   0.0014  -0.0073  -0.0028   0.59    9.4
2019/09/12 04:58:14.600   35.639397984  139.295543928   218.9750   1  15   0.0048   0.0055   0.0192   0.0013  -0.0066   0.0036   0.39    8.4
2019/09/12 04:58:14.800   35.639396580  139.295540977   218.9477   2  17   0.0052   0.0059   0.0207  -0.0017  -0.0061   0.0031   0.19    2.3
2019/09/12 04:58:15.000   35.639395038  139.295537772   218.9919   1  12   0.0059   0.0061   0.0212   0.0020  -0.0066  -0.0016   0.19   11.4
2019/09/12 04:58:15.200   35.639393926  139.295534576   218.9845   1  13   0.0065   0.0078   0.0250   0.0037  -0.0107  -0.0067   0.19   13.9
2019/09/12 04:58:15.400   35.639392667  139.295531215   218.9789   1  12   0.0065   0.0071   0.0303   0.0020  -0.0094   0.0083   0.39   11.1
2019/09/12 04:58:15.600   35.639391216  139.295528269   218.9614   1  11   0.0061   0.0060   0.0270  -0.0018  -0.0088   0.0065   0.39   13.0
2019/09/12 04:58:15.800   35.639389597  139.295525274   218.9784   1   9   0.0074   0.0087   0.0337   0.0048  -0.0094   0.0076   0.19   18.4
2019/09/12 04:58:16.000   35.639388106  139.295522180   219.0014   1   9   0.0075   0.0089   0.0398   0.0048  -0.0083   0.0087   0.39   23.9
2019/09/12 04:58:16.200   35.639386779  139.295518662   218.9563   1   9   0.0077   0.0095   0.0353   0.0055  -0.0113   0.0062   0.39   31.7
2019/09/12 04:58:16.400   35.639385415  139.295515471   219.0029   1  12   0.0063   0.0071   0.0281   0.0019  -0.0095   0.0080   0.19   12.1
2019/09/12 04:58:16.600   35.639384225  139.295512693   218.9873   1   8   0.0121   0.0117   0.0339   0.0098  -0.0086   0.0088   0.39   34.1
2019/09/12 04:58:16.800   35.639382583  139.295509401   219.0072   2   8   0.0122   0.0118   0.0348   0.0100  -0.0080   0.0093   0.39    2.4
2019/09/12 04:58:17.000   35.639381364  139.295506222   218.9922   2  11   0.0070   0.0074   0.0303   0.0034  -0.0102   0.0066   0.19    2.0
2019/09/12 04:58:17.200   35.639380125  139.295502917   218.9793   1   9   0.0067   0.0067   0.0318   0.0024  -0.0049   0.0097   0.39    4.8
2019/09/12 04:58:17.400   35.639378566  139.295500076   218.9934   2  10   0.0071   0.0084   0.0371   0.0042  -0.0103   0.0059   0.39    3.0
2019/09/12 04:58:17.600   35.639376919  139.295497011   218.9795   1   8   0.0168   0.0153   0.0386   0.0141  -0.0147  -0.0117   0.19   83.9
2019/09/12 04:58:17.800   35.639375435  139.295493853   218.9734   1   9   0.0085   0.0093   0.0358   0.0049  -0.0127  -0.0069   0.19    7.2
2019/09/12 04:58:18.000   35.639373919  139.295490719   218.9449   1  11   0.0067   0.0079   0.0295   0.0032  -0.0123   0.0025   0.39    4.4
2019/09/12 04:58:18.200   35.639372412  139.295487660   218.9823   2  13   0.0065   0.0066   0.0296   0.0020  -0.0096   0.0061   0.19    1.9
2019/09/12 04:58:18.400   35.639370797  139.295484911   218.9558   1   9   0.0105   0.0098   0.0338   0.0076  -0.0131  -0.0037   0.19   21.4
2019/09/12 04:58:18.600   35.639368695  139.295481861   218.9898   2  15   0.0062   0.0066   0.0270   0.0009  -0.0090   0.0069   0.19    1.6
2019/09/12 04:58:18.800   35.639367202  139.295478547   218.9834   2  15   0.0060   0.0062   0.0255   0.0007  -0.0080   0.0052   0.19    2.2
2019/09/12 04:58:19.000   35.639365600  139.295475377   218.9935   2  15   0.0056   0.0061   0.0234   0.0016  -0.0077   0.0047   0.19    2.7
2019/09/12 04:58:19.200   35.639363989  139.295472770   218.9729   1  15   0.0055   0.0057   0.0201  -0.0017  -0.0062   0.0022   0.19    4.1
2019/09/12 04:58:19.400   35.639362146  139.295469840   218.9766   1  13   0.0059   0.0058   0.0206   0.0005  -0.0073  -0.0027   0.39    4.5
2019/09/12 04:58:19.600   35.639360634  139.295466842   219.0122   1  13   0.0058   0.0059   0.0207   0.0011  -0.0072  -0.0029   0.39    5.1
2019/09/12 04:58:19.800   35.639359286  139.295463455   218.9586   1  13   0.0064   0.0078   0.0237   0.0037  -0.0106  -0.0059   0.19    6.0
