%  GPST                  latitude(deg) longitude(deg)  height(m)   Q  ns   sdn(m)   sde(m)   sdu(m)  sdne(m)  sdeu(m)  sdun(m) age(s)  ratio
2019/09/12 09:09:09.400   35.639388420  139.296335348   218.9453   1  16   0.0056   0.0047   0.0201   0.0013   0.0038  -0.0088   0.21    5.3
2019/09/12 09:09:09.600   35.639388505  139.296335325   218.9485   1  16   0.0059   0.0047   0.0200   0.0017   0.0038  -0.0088   0.21    6.1
2019/09/12 09:09:09.800   35.639388553  139.296335291   218.9442   1  16   0.0057   0.0046   0.0200   0.0017   0.0038  -0.0088   0.21    5.7
2019/09/12 09:09:10.000   35.639388606  139.296335270   218.9436   1  16   0.0057   0.0045   0.0200   0.0022   0.0039  -0.0088   0.21    5.4
2019/09/12 09:09:10.200   35.639388676  139.296335283   218.9464   1  16   0.0054   0.0046   0.0200   0.0007   0.0038  -0.0088   0.21    5.1
2019/09/12 09:09:10.400   35.639388781  139.296335259   218.9426   1  16   0.0056   0.0048   0.0201   0.0023   0.0035  -0.0090   0.21    4.6
2019/09/12 09:09:10.600   35.639388860  139.296335238   218.9436   1  16   0.0056   0.0049   0.0201   0.0016   0.0032  -0.0089   0.21    4.7
2019/09/12 09:09:10.800   35.639388909  139.296335229   218.9440   1  16   0.0062   0.0050   0.0201   0.0016   0.0034  -0.0090   0.21    4.7
2019/09/12 09:09:11.000   35.639388923  139.296335244   218.9418   1  16   0.0060   0.0049   0.0201   0.0017   0.0033  -0.0089   0.21    4.4
2019/09/12 09:09:11.200   35.639388936  139.296335215   218.9425   1  16   0.0060   0.0045   0.0201   0.0028   0.0036  -0.0091   0.21    4.1
2019/09/12 09:09:11.400   35.639388939  139.296335191   218.9468   1  16   0.0059   0.0046   0.0201   0.0026   0.0036  -0.0091   0.21   13.7
2019/09/12 09:09:11.600   35.639388946  139.296335198   218.9413   1  16   0.0058   0.0047   0.0201   0.0015   0.0033  -0.0089   0.21   23.4
2019/09/12 09:09:11.800   35.639388984  139.296335138   218.9303   2  17   0.0064   0.0053   0.0215   0.0022   0.0039  -0.0095   0.21    1.9
2019/09/12 09:09:12.000   35.639389008  139.296335123   218.9301   2  17   0.0062   0.0053   0.0210   0.0025   0.0042  -0.0092   0.41    2.6
2019/09/12 09:09:12.200   35.639389050  139.296335095   218.9225   1  17   0.0059   0.0050   0.0188   0.0026   0.0037  -0.0082   0.21    3.2
2019/09/12 09:09:12.400   35.639389075  139.296335042   218.9252   1  17   0.0051   0.0048   0.0188   0.0012   0.0040  -0.0080   0.21    3.7
2019/09/12 09:09:12.600   35.639389104  139.296335037   218.9262   1  17   0.0057   0.0048   0.0188   0.0022   0.0039  -0.0082   0.21    4.1
2019/09/12 09:09:12.800   35.639389129  139.296335018   218.9226   1  17   0.0058   0.0045   0.0189   0.0016   0.0038  -0.0081   0.41    4.5
2019/09/12 09:09:13.000   35.639389139  139.296335016   218.9236   1  17   0.0057   0.0046   0.0189   0.0027   0.0040  -0.0083   0.41    4.9
2019/09/12 09:09:13.200   35.639389143  139.296335062   218.9296   1  17   0.0058   0.0050   0.0189   0.0005   0.0036  -0.0080   0.21    5.2
2019/09/12 09:09:13.400   35.639389137  139.296335131   218.9349   1  17   0.0053   0.0046   0.0189   0.0017   0.0038  -0.0081   0.21    5.5
2019/09/12 09:09:13.600   35.639389128  139.296335207   218.9387   1  17   0.0053   0.0049   0.0188   0.0018   0.0038  -0.0082   0.21    5.8
2019/09/12 09:09:13.800   35.639389112  139.296335308   218.9335   1  17   0.0054   0.0045   0.0189   0.0020   0.0038  -0.0081   0.21    3.3
2019/09/12 09:09:14.000   35.639389139  139.296335411   218.9319   1  17   0.0058   0.0047   0.0188   0.0021   0.0036  -0.0081   0.21    5.3
2019/09/12 09:09:14.200   35.639389161  139.296335471   218.9306   1  17   0.0056   0.0049   0.0189   0.0009   0.0036  -0.0081   0.41   11.3
2019/09/12 09:09:14.400   35.639389144  139.296335496   218.9242   1  17   0.0055   0.0043   0.0188   0.0024   0.0038  -0.0083   0.41   16.5
2019/09/12 09:09:14.600   35.639389118  139.296335503   218.9224   1  17   0.0062   0.0047   0.0188   0.0014   0.0036  -0.0080   0.21   21.7
2019/09/12 09:09:14.800   35.639389085  139.296335490   218.9152   1  17   0.0058   0.0048   0.0188   0.0012   0.0037  -0.0081   0.21   26.7
2019/09/12 09:09:15.000   35.639389040  139.296335511   218.9154   1  17   0.0051   0.0047   0.0188   0.0019   0.0035  -0.0081   0.21   31.7
2019/09/12 09:09:15.200   35.639388978  139.296335532   218.9122   1  17   0.0054   0.0047   0.0188   0.0018   0.0035  -0.0081   0.21   36.3
2019/09/12 09:09:15.400   35.639388987  139.296335528   218.9118   1  17   0.0046   0.0044   0.0188   0.0020   0.0041  -0.0082   0.21    3.3
2019/09/12 09:09:15.600   35.639389024  139.296335532   218.9131   1  17   0.0051   0.0046   0.0188   0.0014   0.0038  -0.0079   0.21   10.0
2019/09/12 09:09:15.800   35.639389068  139.296335512   218.9143   1  17   0.0055   0.0048   0.0188   0.0012   0.0038  -0.0080   0.21   16.4
2019/09/12 09:09:16.000   35.639389113  139.296335455   218.9113   1  17   0.0060   0.0048   0.0187  -0.0015   0.0035  -0.0078   0.21   23.0
2019/09/12 09:09:16.200   35.639389115  139.296335391   218.9228   1  16   0.0056   0.0045   0.0200   0.0020   0.0036  -0.0088   0.21   32.8
2019/09/12 09:09:16.400   35.639389161  139.296335311   218.9212   1  16   0.0056   0.0047   0.0200   0.0018   0.0036  -0.0087   0.21   39.9
2019/09/12 09:09:16.600   35.639389215  139.296335262   218.9220   1  16   0.0056   0.0048   0.0201  -0.0013   0.0033  -0.0086   0.41   47.2
2019/09/12 09:09:16.800   35.639389256  139.296335200   218.9214   1  16   0.0057   0.0040   0.0200   0.0006   0.0036  -0.0086   0.21   54.4
2019/09/12 09:09:17.000   35.639389280  139.296335163   218.9204   1  16   0.0052   0.0048   0.0200   0.0009   0.0036  -0.0088   0.21   61.5
2019/09/12 09:09:17.200   35.639389331  139.296335155   218.9136   1  16   0.0058   0.0043   0.0200   0.0009   0.0037  -0.0087   0.21   69.1
2019/09/12 09:09:17.400   35.639389313  139.296335101   218.9165   1  16   0.0059   0.0043   0.0200   0.0017   0.0038  -0.0088   0.21   76.4
2019/09/12 09:09:17.600   35.639389339  139.296335101   218.9143   1  16   0.0055   0.0047   0.0200   0.0009   0.0034  -0.0086   0.21   83.6
2019/09/12 09:09:17.800   35.639389342  139.296335126   218.9185   1  16   0.0056   0.0046   0.0200   0.0014   0.0037  -0.0088   0.21   90.4
2019/09/12 09:09:18.000   35.639389344  139.296335145   218.9167   1  16   0.0048   0.0043   0.0200   0.0022   0.0038  -0.0088   0.21   97.2
2019/09/12 09:09:18.200   35.639389304  139.296335149   218.9216   1  16   0.0057   0.0043   0.0200   0.0005   0.0034  -0.0086   0.21  104.0
2019/09/12 09:09:18.400   35.639389320  139.296335191   218.9218   1  16   0.0057   0.0045   0.0200   0.0014   0.0038  -0.0087   0.21  110.3
2019/09/12 09:09:18.600   35.639389332  139.296335215   218.9212   1  16   0.0056   0.0042   0.0200   0.0020   0.0038  -0.0089   0.41  116.3
2019/09/12 09:09:18.800   35.639389333  139.296335224   218.9173   1  16   0.0056   0.0041   0.0200   0.0019   0.0038  -0.0088   0.41  122.1
2019/09/12 09:09:19.000   35.639389297  139.296335248   218.9166   1  16   0.0057   0.0047   0.0199   0.0009   0.0034  -0.0087   0.21  128.3
2019/09/12 09:09:19.200   35.639389256  139.296335236   218.9151   1  16   0.0055   0.0045   0.0200  -0.0010   0.0035  -0.0086   0.21  134.5
2019/09/12 09:09:19.400   35.639389194  139.296335238   218.9198   1  16   0.0051   0.0049   0.0200  -0.0004   0.0036  -0.0086   0.21  138.0
2019/09/12 09:09:19.600   35.639389153  139.296335244   218.9219   1  16   0.0060   0.0046   0.0200   0.0008   0.0035  -0.0088   0.41  140.3
2019/09/12 09:09:19.800   35.639389101  139.296335287   218.9229   1  16   0.0054   0.0047   0.0200   0.0016   0.0034  -0.0087   0.41  142.7
2019/09/12 09:09:20.000   35.639389053  139.296335298   218.9274   1  16   0.0053   0.0043   0.0201   0.0017   0.0037  -0.0089   0.61  145.2
2019/09/12 09:09:20.200   35.639389004  139.296335316   218.9206   1  16   0.0058   0.0045   0.0201   0.0008   0.0036  -0.0086   0.41  147.3
2019/09/12 09:09:20.400   35.639388997  139.296335346   218.9233   1  16   0.0054   0.0048   0.0200   0.0017   0.0038  -0.0088   0.21  150.3
2019/09/12 09:09:20.600   35.639388990  139.296335354   218.9297   1  16   0.0055   0.0045   0.0200   0.0020   0.0038  -0.0089   0.41  153.5
2019/09/12 09:09:20.800   35.639388977  139.296335339   218.9236   1  16   0.0057   0.0044   0.0201   0.0018   0.0037  -0.0087   0.41  156.3
2019/09/12 09:09:21.000   35.639388982  139.296335335   218.9272   1  16   0.0054   0.0043   0.0200   0.0009   0.0037  -0.0088   0.21  158.5
2019/09/12 09:09:21.200   35.639389004  139.296335324   218.9262   1  16   0.0056   0.0048   0.0200   0.0011   0.0036  -0.0088   0.41  160.8
2019/09/12 09:09:21.400   35.639389009  139.296335296   218.9218   2  17   0.0059   0.0045   0.0202   0.0007   0.0036  -0.0086   0.41    1.4
2019/09/12 09:09:21.600   35.639389043  139.296335289   218.9192   2  17   0.0057   0.0051   0.0195  -0.0009   0.0035  -0.0083   0.21    1.8
2019/09/12 09:09:21.800   35.639389038  139.296335262   218.9152   2  17   0.0054   0.0049   0.0193   0.0006   0.0037  -0.0083   0.41    2.1
2019/09/12 09:09:22.000   35.639389051  139.296335249   218.9145   2  17   0.0053   0.0044   0.0192   0.0025   0.0040  -0.0083   0.41    2.4
2019/09/12 09:09:22.200   35.639389045  139.296335240   218.9159   2  17   0.0054   0.0044   0.0191   0.0014   0.0038  -0.0082   0.21    2.8
2019/09/12 09:09:22.400   35.639389091  139.296335240   218.9121   1  17   0.0054   0.0048   0.0188  -0.0006   0.0036  -0.0079   0.41    3.0
2019/09/12 09:09:22.600   35.639389127  139.296335232   218.9075   1  17   0.0057   0.0049   0.0189  -0.0004   0.0037  -0.0078   0.41    3.3
2019/09/12 09:09:22.800   35.639389135  139.296335211   218.9069   1  17   0.0055   0.0049   0.0187   0.0008   0.0035  -0.0079   0.21    3.6
2019/09/12 09:09:23.000   35.639389160  139.296335211   218.9053   1  17   0.0047   0.0045   0.0188   0.0017   0.0037  -0.0080   0.21    3.9
2019/09/12 09:09:23.200   35.639389182  139.296335203   218.9039   1  17   0.0054   0.0044   0.0188   0.0020   0.0040  -0.0079   0.21    4.1
2019/09/12 09:09:23.400   35.639389201  139.296335174   218.9039   1  17   0.0053   0.0044   0.0188   0.0016   0.0038  -0.0079   0.21    4.3
2019/09/12 09:09:23.600   35.639389194  139.296335151   218.9041   1  17   0.0056   0.0047   0.0188  -0.0007   0.0037  -0.0079   0.21    4.6
2019/09/12 09:09:23.800   35.639389180  139.296335138   218.9089   1  17   0.0055   0.0049   0.0188   0.0012   0.0036  -0.0078   0.21    4.9
2019/09/12 09:09:24.000   35.639389198  139.296335115   218.9043   1  17   0.0053   0.0047   0.0188  -0.0005   0.0039  -0.0080   0.21    5.1
2019/09/12 09:09:24.200   35.639389216  139.296335102   218.9032   1  17   0.0056   0.0044   0.0187   0.0010   0.0039  -0.0081   0.21    5.4
2019/09/12 09:09:24.400   35.639389199  139.296335119   218.9048   1  17   0.0055   0.0045   0.0188  -0.0000   0.0037  -0.0079   0.21    8.5
2019/09/12 09:09:24.600   35.639389214  139.296335097   218.9127   1  17   0.0056   0.0046   0.0188  -0.0005   0.0038  -0.0081   0.41   11.7
2019/09/12 09:09:24.800   35.639389165  139.296334978   218.9277   1  17   0.0052   0.0047   0.0189   0.0011   0.0038  -0.0078   0.41   14.8
2019/09/12 09:09:25.000   35.639388908  139.296334795   218.9394   1  17   0.0047   0.0047   0.0188   0.0018   0.0040  -0.0080   0.21   17.8
2019/09/12 09:09:25.200   35.639388339  139.296334290   218.9416   1  17   0.0050   0.0046   0.0188   0.0010   0.0039  -0.0079   0.21   21.0
2019/09/12 09:09:25.400   35.639387563  139.296333458   218.9412   1  17   0.0056   0.0047   0.0187   0.0015   0.0037  -0.0080   0.21   24.1
2019/09/12 09:09:25.600   35.639386654  139.296332085   218.9556   1  17   0.0056   0.0046   0.0188   0.0023   0.0038  -0.0081   0.21   28.0
2019/09/12 09:09:25.800   35.639386153  139.296330823   218.9699   1  17   0.0059   0.0050   0.0189   0.0004   0.0035  -0.0080   0.41   31.3
2019/09/12 09:09:26.000   35.639385951  139.296329542   218.9677   1  17   0.0058   0.0048   0.0179   0.0005   0.0030  -0.0082   0.41    3.0
2019/09/12 09:09:26.200   35.639385974  139.296327775   218.9525   1  17   0.0054   0.0044   0.0178   0.0018   0.0032  -0.0081   0.21   10.5
2019/09/12 09:09:26.400   35.639385923  139.296325911   218.9656   1  17   0.0051   0.0048   0.0178  -0.0012   0.0032  -0.0081   0.21   18.1
2019/09/12 09:09:26.600   35.639385429  139.296324245   218.9582   1  17   0.0057   0.0048   0.0178   0.0011   0.0033  -0.0080   0.21   25.7
2019/09/12 09:09:26.800   35.639384658  139.296322378   218.9416   1  17   0.0054   0.0043   0.0178  -0.0010   0.0034  -0.0080   0.21   33.3
2019/09/12 09:09:27.000   35.639384095  139.296320467   218.9818   1  17   0.0054   0.0048   0.0177   0.0011   0.0030  -0.0080   0.21   41.3
2019/09/12 09:09:27.200   35.639383790  139.296318545   218.9616   1  17   0.0054   0.0047   0.0177   0.0014   0.0032  -0.0081   0.21   49.3
2019/09/12 09:09:27.400   35.639383596  139.296316308   218.9578   1  17   0.0052   0.0049   0.0178   0.0015   0.0034  -0.0080   0.21   57.1
2019/09/12 09:09:27.600   35.639383382  139.296314386   219.0299   1  17   0.0054   0.0047   0.0187   0.0012   0.0038  -0.0082   0.41   63.9
2019/09/12 09:09:27.800   35.639382916  139.296312563   219.0084   2  15   0.0061   0.0056   0.0191   0.0037   0.0046  -0.0076   0.41    1.3
2019/09/12 09:09:28.000   35.639382181  139.296310242   219.0121   2  15   0.0063   0.0055   0.0190   0.0038   0.0047  -0.0076   0.21    1.4
2019/09/12 09:09:28.200   35.639381845  139.296308126   219.0569   1  14   0.0064   0.0065   0.0192   0.0039   0.0057  -0.0075   0.21   70.4
2019/09/12 09:09:28.400   35.639382022  139.296305870   219.0317   2  14   0.0064   0.0065   0.0193   0.0039   0.0057  -0.0075   0.21    1.9
2019/09/12 09:09:28.600   35.639382776  139.296303367   219.0414   2  13   0.0070   0.0089   0.0311  -0.0029   0.0139  -0.0114   0.21    2.8
2019/09/12 09:09:28.800   35.639383287  139.296300278   219.0079   2  16   0.0060   0.0052   0.0187   0.0031   0.0054  -0.0072   0.21    2.2
2019/09/12 09:09:29.000   35.639383744  139.296297153   218.9790   2  16   0.0063   0.0052   0.0190   0.0032   0.0044  -0.0079   0.41    2.5
2019/09/12 09:09:29.200   35.639384242  139.296294545   219.0136   1  16   0.0057   0.0050   0.0189   0.0015   0.0038  -0.0076   0.41    3.9
2019/09/12 09:09:29.400   35.639384858  139.296292075   218.9823   1  16   0.0055   0.0047   0.0188   0.0020   0.0041  -0.0079   0.21    5.5
2019/09/12 09:09:29.600   35.639385703  139.296289502   218.9712   2  16   0.0058   0.0055   0.0190   0.0010   0.0041  -0.0076   0.21    2.9
2019/09/12 09:09:29.800   35.639386032  139.296287206   218.9966   1  16   0.0054   0.0048   0.0178   0.0017   0.0034  -0.0080   0.21    4.7
2019/09/12 09:09:30.000   35.639386422  139.296284931   218.9484   1  16   0.0056   0.0051   0.0179  -0.0009   0.0033  -0.0078   0.21    6.6
2019/09/12 09:09:30.200   35.639386697  139.296282540   218.9863   1  16   0.0055   0.0047   0.0178   0.0004   0.0033  -0.0079   0.21    8.4
2019/09/12 09:09:30.400   35.639387286  139.296280529   218.9706   1  16   0.0052   0.0048   0.0178  -0.0007   0.0033  -0.0079   0.21   10.1
2019/09/12 09:09:30.600   35.639387950  139.296278278   218.9504   1  16   0.0053   0.0048   0.0179   0.0013   0.0034  -0.0079   0.41   11.7
2019/09/12 09:09:30.800   35.639388528  139.296275907   218.9793   1  16   0.0052   0.0045   0.0178   0.0015   0.0034  -0.0080   0.41   13.4
2019/09/12 09:09:31.000   35.639388739  139.296273746   218.9635   1  16   0.0053   0.0045   0.0178   0.0019   0.0033  -0.0079   0.21   14.3
2019/09/12 09:09:31.200   35.639388842  139.296271034   218.9634   2  17   0.0060   0.0052   0.0180  -0.0010   0.0033  -0.0077   0.21    2.1
2019/09/12 09:09:31.400   35.639389211  139.296268741   218.9889   1  17   0.0053   0.0049   0.0177   0.0015   0.0032  -0.0080   0.21    3.1
2019/09/12 09:09:31.600   35.639389716  139.296266250   218.9490   1  17   0.0051   0.0050   0.0177   0.0009   0.0031  -0.0081   0.21    4.2
2019/09/12 09:09:31.800   35.639390364  139.296263671   218.9759   1  17   0.0055   0.0048   0.0179   0.0021   0.0029  -0.0082   0.21    5.0
2019/09/12 09:09:32.000   35.639390628  139.296261481   218.9844   1  17   0.0053   0.0040   0.0178   0.0017   0.0034  -0.0080   0.21    5.9
2019/09/12 09:09:32.200   35.639390895  139.296258939   218.9592   1  17   0.0051   0.0045   0.0177   0.0009   0.0032  -0.0080   0.21    7.0
2019/09/12 09:09:32.400   35.639391235  139.296256371   218.9959   1  17   0.0054   0.0048   0.0177   0.0016   0.0035  -0.0081   0.21    7.9
2019/09/12 09:09:32.600   35.639391949  139.296254097   218.9854   1  17   0.0056   0.0046   0.0188  -0.0011   0.0037  -0.0078   0.21    9.2
2019/09/12 09:09:32.800   35.639392856  139.296251495   218.9574   1  17   0.0053   0.0045   0.0178  -0.0017   0.0029  -0.0078   0.41    9.7
2019/09/12 09:09:33.000   35.639393267  139.296249050   219.0011   1  16   0.0051   0.0044   0.0179   0.0018   0.0034  -0.0079   0.41   22.5
2019/09/12 09:09:33.200   35.639393491  139.296246611   218.9593   1  16   0.0055   0.0047   0.0179   0.0017   0.0034  -0.0080   0.61   23.2
2019/09/12 09:09:33.400   35.639393487  139.296243882   218.9907   1  17   0.0048   0.0044   0.0178   0.0018   0.0035  -0.0082   0.41   10.6
2019/09/12 09:09:33.600   35.639394103  139.296241680   219.0008   1  17   0.0053   0.0048   0.0188   0.0013   0.0039  -0.0081   0.21   15.1
2019/09/12 09:09:33.800   35.639394835  139.296238974   218.9681   1  17   0.0053   0.0044   0.0188   0.0019   0.0040  -0.0080   0.41   18.9
2019/09/12 09:09:34.000   35.639395518  139.296236370   218.9894   1  16   0.0054   0.0046   0.0189   0.0021   0.0043  -0.0078   0.41   42.1
2019/09/12 09:09:34.200   35.639395783  139.296234257   218.9862   1  16   0.0054   0.0044   0.0189   0.0020   0.0043  -0.0080   0.61   45.7
2019/09/12 09:09:34.400   35.639395928  139.296231560   218.9959   1  16   0.0055   0.0048   0.0189   0.0014   0.0041  -0.0078   0.41   49.6
2019/09/12 09:09:34.600   35.639396491  139.296229027   219.0238   1  16   0.0060   0.0048   0.0189   0.0022   0.0040  -0.0079   0.21   52.4
2019/09/12 09:09:34.800   35.639397003  139.296226276   218.9801   1  16   0.0063   0.0051   0.0188   0.0027   0.0040  -0.0079   0.41   56.2
2019/09/12 09:09:35.000   35.639397568  139.296223270   219.0061   2  16   0.0060   0.0047   0.0189   0.0026   0.0041  -0.0081   0.41    2.7
2019/09/12 09:09:35.200   35.639397474  139.296220717   219.0055   1  16   0.0058   0.0051   0.0178   0.0023   0.0030  -0.0083   0.21    4.6
2019/09/12 09:09:35.400   35.639397381  139.296217976   219.0081   1  16   0.0055   0.0048   0.0189   0.0028   0.0041  -0.0081   0.41   61.6
2019/09/12 09:09:35.600   35.639397472  139.296215597   219.0567   2  16   0.0061   0.0053   0.0190   0.0019   0.0039  -0.0078   0.41    1.9
2019/09/12 09:09:35.800   35.639397786  139.296213168   219.0072   2  15   0.0064   0.0054   0.0187   0.0029   0.0051  -0.0073   0.21    2.9
2019/09/12 09:09:36.000   35.639398259  139.296210721   219.0562   2  14   0.0063   0.0062   0.0192   0.0026   0.0063  -0.0070   0.41    1.5
2019/09/12 09:09:36.200   35.639398319  139.296208182   219.0354   2  13   0.0079   0.0096   0.0360  -0.0044   0.0161  -0.0138   0.41    1.3
2019/09/12 09:09:36.400   35.639398133  139.296205373   219.0170   2  13   0.0078   0.0090   0.0331  -0.0029   0.0148  -0.0121   0.21    1.7
2019/09/12 09:09:36.600   35.639398336  139.296202552   219.0667   2  14   0.0059   0.0062   0.0194   0.0031   0.0063  -0.0074   0.41    2.1
2019/09/12 09:09:36.800   35.639398652  139.296199617   219.0108   2  14   0.0061   0.0060   0.0193   0.0033   0.0064  -0.0073   0.41    2.5
2019/09/12 09:09:37.000   35.639398821  139.296196352   219.0480   2  14   0.0069   0.0062   0.0193   0.0034   0.0066  -0.0068   0.21    1.4
2019/09/12 09:09:37.200   35.639398494  139.296192996   219.0205   2  16   0.0060   0.0057   0.0192   0.0036   0.0066  -0.0073   0.21    1.4
2019/09/12 09:09:37.400   35.639398129  139.296189867   218.9947   2  16   0.0059   0.0053   0.0193   0.0028   0.0050  -0.0079   0.21    1.6
2019/09/12 09:09:37.600   35.639398091  139.296186846   219.0153   2  17   0.0062   0.0056   0.0193   0.0029   0.0046  -0.0080   0.41    2.0
2019/09/12 09:09:37.800   35.639398269  139.296183981   218.9611   1  16   0.0059   0.0048   0.0188   0.0028   0.0040  -0.0079   0.21    4.2
2019/09/12 09:09:38.000   35.639398501  139.296181080   218.9994   2  16   0.0058   0.0047   0.0191   0.0030   0.0047  -0.0080   0.41    1.7
2019/09/12 09:09:38.200   35.639398391  139.296178630   218.9862   2  16   0.0051   0.0049   0.0190   0.0031   0.0046  -0.0080   0.21    1.7
2019/09/12 09:09:38.400   35.639398186  139.296175753   218.9672   2  16   0.0055   0.0045   0.0190   0.0025   0.0045  -0.0079   0.21    1.8
2019/09/12 09:09:38.600   35.639398308  139.296173128   219.0011   1  16   0.0058   0.0043   0.0188   0.0020   0.0042  -0.0078   0.21    5.5
2019/09/12 09:09:38.800   35.639398531  139.296170437   218.9616   1  16   0.0057   0.0047   0.0188   0.0015   0.0040  -0.0077   0.21    5.8
2019/09/12 09:09:39.000   35.639398940  139.296167792   218.9828   2  16   0.0051   0.0050   0.0190   0.0026   0.0043  -0.0079   0.21    2.6
2019/09/12 09:09:39.200   35.639398760  139.296165508   218.9926   1  16   0.0053   0.0049   0.0188   0.0019   0.0041  -0.0078   0.21    6.3
2019/09/12 09:09:39.400   35.639398417  139.296162818   218.9607   1  16   0.0056   0.0044   0.0189   0.0021   0.0042  -0.0078   0.41    6.5
2019/09/12 09:09:39.600   35.639398412  139.296160383   219.0044   1  16   0.0056   0.0046   0.0189   0.0024   0.0044  -0.0079   0.41    6.7
2019/09/12 09:09:39.800   35.639398546  139.296158031   218.9930   1  16   0.0054   0.0043   0.0188   0.0023   0.0041  -0.0078   0.21    6.9
2019/09/12 09:09:40.000   35.639398830  139.296155341   219.0100   2  16   0.0057   0.0046   0.0189   0.0025   0.0043  -0.0078   0.21    1.3
2019/09/12 09:09:40.200   35.639398779  139.296152634   219.0103   1  16   0.0058   0.0044   0.0188   0.0024   0.0042  -0.0078   0.21    7.2
2019/09/12 09:09:40.400   35.639398641  139.296149820   218.9725   1  16   0.0053   0.0048   0.0188   0.0016   0.0041  -0.0078   0.21    7.4
2019/09/12 09:09:40.600   35.639398609  139.296146875   218.9889   1  16   0.0054   0.0050   0.0189   0.0018   0.0042  -0.0077   0.21    7.8
2019/09/12 09:09:40.800   35.639398858  139.296144274   218.9722   1  16   0.0054   0.0047   0.0188   0.0020   0.0041  -0.0077   0.21    7.9
2019/09/12 09:09:41.000   35.639399124  139.296141432   218.9696   2  17   0.0060   0.0048   0.0190   0.0013   0.0040  -0.0076   0.21    1.9
2019/09/12 09:09:41.200   35.639399066  139.296138825   218.9897   2  17   0.0050   0.0046   0.0188   0.0021   0.0042  -0.0081   0.21    2.8
2019/09/12 09:09:41.400   35.639398916  139.296136173   218.9413   1  17   0.0051   0.0045   0.0187   0.0013   0.0037  -0.0079   0.21    3.7
2019/09/12 09:09:41.600   35.639398717  139.296133552   218.9719   1  17   0.0053   0.0041   0.0187   0.0019   0.0041  -0.0081   0.21    4.7
2019/09/12 09:09:41.800   35.639398934  139.296131190   218.9687   1  16   0.0052   0.0048   0.0188   0.0019   0.0041  -0.0078   0.21    9.2
2019/09/12 09:09:42.000   35.639399201  139.296128629   218.9383   1  16   0.0055   0.0048   0.0189   0.0017   0.0041  -0.0076   0.41    9.5
2019/09/12 09:09:42.200   35.639399415  139.296126255   218.9724   1  16   0.0051   0.0046   0.0188   0.0019   0.0042  -0.0080   0.21    9.8
2019/09/12 09:09:42.400   35.639399338  139.296123975   218.9625   1  16   0.0051   0.0049   0.0189   0.0017   0.0042  -0.0078   0.41   10.0
2019/09/12 09:09:42.600   35.639399205  139.296121434   218.9888   1  16   0.0060   0.0050   0.0188   0.0011   0.0040  -0.0077   0.41   10.3
2019/09/12 09:09:42.800   35.639399518  139.296119468   219.0404   1  15   0.0063   0.0056   0.0189   0.0035   0.0046  -0.0077   0.21   11.7
2019/09/12 09:09:43.000   35.639399963  139.296117011   218.9938   2  14   0.0063   0.0053   0.0201   0.0035   0.0045  -0.0084   0.21    1.5
2019/09/12 09:09:43.200   35.639400545  139.296114728   219.0192   2  14   0.0066   0.0055   0.0196   0.0028   0.0048  -0.0080   0.21    1.7
2019/09/12 09:09:43.400   35.639400313  139.296112439   219.0217   2  12   0.0080   0.0091   0.0341  -0.0027   0.0149  -0.0128   0.21    2.2
2019/09/12 09:09:43.600   35.639400219  139.296109925   218.9849   2  12   0.0080   0.0090   0.0340  -0.0031   0.0149  -0.0127   0.21    2.3
2019/09/12 09:09:43.800   35.639400426  139.296107449   219.0396   2  12   0.0078   0.0090   0.0340  -0.0030   0.0149  -0.0127   0.21    2.7
2019/09/12 09:09:44.000   35.639400871  139.296104649   218.9696   2  12   0.0078   0.0089   0.0339  -0.0031   0.0149  -0.0127   0.21    2.8
2019/09/12 09:09:44.200   35.639401419  139.296101934   219.0208   1  11   0.0089   0.0104   0.0339   0.0041   0.0155  -0.0118   0.21    3.1
2019/09/12 09:09:44.400   35.639401225  139.296099231   219.0514   2  13   0.0077   0.0092   0.0339  -0.0033   0.0148  -0.0126   0.21    1.3
2019/09/12 09:09:44.600   35.639401024  139.296096320   218.9770   2  13   0.0075   0.0089   0.0324  -0.0025   0.0145  -0.0117   0.21    1.6
2019/09/12 09:09:44.800   35.639400987  139.296093666   219.0638   2  13   0.0075   0.0089   0.0325  -0.0029   0.0146  -0.0117   0.21    1.8
2019/09/12 09:09:45.000   35.639401349  139.296090906   219.0055   2  13   0.0075   0.0088   0.0322  -0.0027   0.0146  -0.0115   0.21    1.3
2019/09/12 09:09:45.200   35.639401600  139.296087951   219.0114   2  13   0.0070   0.0087   0.0311  -0.0027   0.0140  -0.0113   0.21    2.3
2019/09/12 09:09:45.400   35.639401570  139.296085154   219.0549   2  13   0.0075   0.0090   0.0319  -0.0028   0.0145  -0.0113   0.21    2.7
2019/09/12 09:09:45.600   35.639401575  139.296082155   219.0025   2  13   0.0070   0.0086   0.0307  -0.0031   0.0138  -0.0113   0.21    2.8
2019/09/12 09:09:45.800   35.639401804  139.296079135   219.0318   2  13   0.0071   0.0089   0.0311  -0.0024   0.0142  -0.0108   0.21    2.0
2019/09/12 09:09:46.000   35.639402378  139.296076384   219.0172   2  16   0.0071   0.0086   0.0309  -0.0027   0.0140  -0.0110   0.21    1.4
2019/09/12 09:09:46.200   35.639403187  139.296073595   219.0095   2  16   0.0060   0.0073   0.0258  -0.0016   0.0100  -0.0100   0.41    1.8
2019/09/12 09:09:46.400   35.639403369  139.296070675   219.0218   2  16   0.0059   0.0066   0.0240   0.0013   0.0087  -0.0096   0.21    2.2
2019/09/12 09:09:46.600   35.639403312  139.296068017   218.9829   2  16   0.0059   0.0060   0.0230   0.0012   0.0080  -0.0092   0.21    2.6
2019/09/12 09:09:46.800   35.639403243  139.296065784   219.0456   2  16   0.0061   0.0058   0.0221   0.0023   0.0074  -0.0089   0.21    1.5
2019/09/12 09:09:47.000   35.639403219  139.296063962   219.0345   2  16   0.0057   0.0055   0.0211   0.0017   0.0074  -0.0084   0.41    1.8
2019/09/12 09:09:47.200   35.639403610  139.296061872   218.9961   2  15   0.0057   0.0057   0.0213   0.0018   0.0069  -0.0086   0.41    2.1
2019/09/12 09:09:47.400   35.639403707  139.296059813   219.0252   2  15   0.0055   0.0057   0.0211   0.0012   0.0066  -0.0084   0.61    2.3
2019/09/12 09:09:47.600   35.639403592  139.296057888   219.0064   2  16   0.0056   0.0053   0.0207   0.0010   0.0063  -0.0083   0.41    2.4
2019/09/12 09:09:47.800   35.639403195  139.296055857   219.0196   2  16   0.0059   0.0052   0.0204   0.0018   0.0061  -0.0082   0.21    2.5
2019/09/12 09:09:48.000   35.639403131  139.296053781   219.0277   2  16   0.0053   0.0053   0.0203   0.0022   0.0060  -0.0082   0.41    2.6
2019/09/12 09:09:48.200   35.639403294  139.296051738   219.0115   2  16   0.0053   0.0053   0.0202   0.0019   0.0060  -0.0084   0.41    2.6
2019/09/12 09:09:48.400   35.639403623  139.296049631   219.0058   1  15   0.0062   0.0056   0.0190   0.0026   0.0047  -0.0072   0.61    5.4
2019/09/12 09:09:48.600   35.639403756  139.296047681   219.0382   2  15   0.0069   0.0063   0.0203   0.0042   0.0065  -0.0077   0.41    3.0
2019/09/12 09:09:48.800   35.639404026  139.296045778   218.9909   1  15   0.0065   0.0060   0.0187   0.0040   0.0052  -0.0071   0.21    3.1
2019/09/12 09:09:49.000   35.639403967  139.296043815   218.9957   1  14   0.0092   0.0063   0.0201   0.0059   0.0027  -0.0098   0.41    3.2
2019/09/12 09:09:49.200   35.639404287  139.296042125   219.0234   1  14   0.0092   0.0066   0.0201   0.0058   0.0023  -0.0097   0.41    3.3
2019/09/12 09:09:49.400   35.639404694  139.296040204   218.9922   1  14   0.0089   0.0065   0.0201   0.0059   0.0028  -0.0098   0.21    3.3
2019/09/12 09:09:49.600   35.639405457  139.296038535   219.0164   1  14   0.0089   0.0068   0.0202   0.0058   0.0026  -0.0098   0.41    3.4
2019/09/12 09:09:49.800   35.639405777  139.296037010   219.0251   1  13   0.0095   0.0079   0.0203   0.0065   0.0041  -0.0094   0.41    3.5
2019/09/12 09:09:50.000   35.639405943  139.296035242   218.9957   1  13   0.0093   0.0078   0.0202   0.0066   0.0041  -0.0094   0.21    3.5
2019/09/12 09:09:50.200   35.639405859  139.296033330   219.0463   2  12   0.0096   0.0141   0.0335   0.0078   0.0181  -0.0073   0.41    1.8
2019/09/12 09:09:50.400   35.639406233  139.296031282   219.0378   2  12   0.0095   0.0140   0.0331   0.0078   0.0180  -0.0076   0.41    2.5
2019/09/12 09:09:50.600   35.639406657  139.296028909   218.9921   1  13   0.0090   0.0089   0.0263   0.0054   0.0105  -0.0104   0.21    3.3
2019/09/12 09:09:50.800   35.639407048  139.296026421   219.0196   2  15   0.0091   0.0069   0.0210   0.0060   0.0043  -0.0099   0.41    1.7
2019/09/12 09:09:51.000   35.639407122  139.296024538   219.0208   2  16   0.0078   0.0065   0.0203   0.0050   0.0052  -0.0088   0.41    1.8
2019/09/12 09:09:51.200   35.639406996  139.296022341   218.9812   2  16   0.0071   0.0063   0.0201   0.0040   0.0047  -0.0086   0.21    2.4
2019/09/12 09:09:51.400   35.639406981  139.296020175   218.9702   1  16   0.0057   0.0048   0.0177   0.0012   0.0035  -0.0079   0.21    3.5
2019/09/12 09:09:51.600   35.639407094  139.296018310   219.0096   2  17   0.0068   0.0058   0.0200   0.0033   0.0048  -0.0084   0.21    1.8
2019/09/12 09:09:51.800   35.639407344  139.296016137   218.9598   1  16   0.0057   0.0051   0.0188   0.0014   0.0040  -0.0078   0.21    5.1
2019/09/12 09:09:52.000   35.639407572  139.296013684   218.9790   1  16   0.0055   0.0048   0.0188   0.0016   0.0041  -0.0078   0.21    5.9
2019/09/12 09:09:52.200   35.639407437  139.296011537   218.9584   1  16   0.0055   0.0049   0.0177   0.0010   0.0032  -0.0079   0.21    5.0
2019/09/12 09:09:52.400   35.639407120  139.296009462   218.9570   1  16   0.0054   0.0046   0.0177   0.0011   0.0033  -0.0079   0.21    6.5
2019/09/12 09:09:52.600   35.639407033  139.296007645   218.9767   1  16   0.0054   0.0044   0.0177   0.0014   0.0034  -0.0080   0.21    7.9
2019/09/12 09:09:52.800   35.639407018  139.296006042   218.9660   1  16   0.0053   0.0048   0.0178   0.0013   0.0034  -0.0079   0.41    9.1
2019/09/12 09:09:53.000   35.639407367  139.296004397   218.9926   1  16   0.0057   0.0049   0.0188   0.0012   0.0040  -0.0077   0.41   10.2
2019/09/12 09:09:53.200   35.639407182  139.296002794   219.0455   2  15   0.0059   0.0060   0.0197   0.0028   0.0052  -0.0078   0.21    1.2
2019/09/12 09:09:53.400   35.639407102  139.296000955   219.0013   2  13   0.0072   0.0091   0.0311  -0.0029   0.0137  -0.0115   0.21    1.3
2019/09/12 09:09:53.600   35.639406765  139.295999156   219.0179   2  13   0.0071   0.0089   0.0308  -0.0026   0.0138  -0.0114   0.21    1.3
2019/09/12 09:09:53.800   35.639406946  139.295997416   219.0234   1  13   0.0071   0.0089   0.0312  -0.0025   0.0144  -0.0109   0.21    3.6
2019/09/12 09:09:54.000   35.639407226  139.295995142   218.9826   1  13   0.0074   0.0096   0.0312   0.0002   0.0142  -0.0109   0.21    9.6
2019/09/12 09:09:54.200   35.639407427  139.295992311   218.9857   1  13   0.0069   0.0088   0.0308  -0.0034   0.0135  -0.0116   0.21   11.5
2019/09/12 09:09:54.400   35.639407670  139.295989520   219.0207   2  14   0.0077   0.0099   0.0315   0.0019   0.0144  -0.0109   0.21    1.4
2019/09/12 09:09:54.600   35.639407699  139.295986056   218.9630   2  13   0.0086   0.0085   0.0328  -0.0018   0.0128  -0.0136   0.21    1.9
2019/09/12 09:09:54.800   35.639407973  139.295982531   219.0166   2  14   0.0078   0.0079   0.0286  -0.0015   0.0114  -0.0113   0.21    2.1
2019/09/12 09:09:55.000   35.639408787  139.295978827   218.9736   2  14   0.0076   0.0076   0.0283  -0.0014   0.0110  -0.0114   0.41    2.4
2019/09/12 09:09:55.200   35.639409507  139.295975081   219.0387   2  15   0.0070   0.0071   0.0281  -0.0025   0.0108  -0.0115   0.41    1.3
2019/09/12 09:09:55.400   35.639409872  139.295971219   218.9938   2  15   0.0074   0.0083   0.0255   0.0038   0.0107  -0.0090   0.21    1.6
2019/09/12 09:09:55.600   35.639410329  139.295967631   219.0380   2  14   0.0071   0.0081   0.0239   0.0042   0.0096  -0.0085   0.21    1.3
2019/09/12 09:09:55.800   35.639411042  139.295963947   218.9878   2  13   0.0074   0.0098   0.0312   0.0022   0.0143  -0.0107   0.41    1.5
2019/09/12 09:09:56.000   35.639411510  139.295959813   219.0131   2  13   0.0073   0.0098   0.0311   0.0025   0.0142  -0.0106   0.41    1.7
2019/09/12 09:09:56.200   35.639411433  139.295956079   218.9740   2  13   0.0068   0.0089   0.0305  -0.0027   0.0135  -0.0113   0.21    1.8
2019/09/12 09:09:56.400   35.639411634  139.295952447   219.0178   2  13   0.0072   0.0089   0.0305  -0.0026   0.0134  -0.0113   0.21    2.0
2019/09/12 09:09:56.600   35.639412094  139.295949473   219.0199   2  11   0.0070   0.0093   0.0305  -0.0029   0.0137  -0.0115   0.21    1.4
2019/09/12 09:09:56.800   35.639412679  139.295946321   218.9863   2  12   0.0069   0.0092   0.0305  -0.0031   0.0136  -0.0115   0.21    1.4
2019/09/12 09:09:57.000   35.639412716  139.295943850   219.0382   2  13   0.0076   0.0098   0.0309   0.0008   0.0143  -0.0107   0.21    1.3
2019/09/12 09:09:57.200   35.639412651  139.295941650   219.0097   2  15   0.0071   0.0084   0.0261   0.0031   0.0113  -0.0090   0.41    1.6
2019/09/12 09:09:57.400   35.639412244  139.295939744   219.0149   2  17   0.0059   0.0065   0.0235   0.0019   0.0085  -0.0093   0.41    2.0
2019/09/12 09:09:57.600   35.639412339  139.295937858   219.0249   2  15   0.0068   0.0069   0.0224   0.0032   0.0081  -0.0085   0.21    1.4
2019/09/12 09:09:57.800   35.639412756  139.295935765   218.9979   2  16   0.0068   0.0063   0.0214   0.0034   0.0074  -0.0081   0.21    1.7
2019/09/12 09:09:58.000   35.639413749  139.295933653   219.0034   2  16   0.0056   0.0063   0.0210   0.0023   0.0069  -0.0081   0.21    1.8
2019/09/12 09:09:58.200   35.639413965  139.295931489   218.9836   2  17   0.0060   0.0062   0.0205   0.0015   0.0064  -0.0081   0.21    1.9
2019/09/12 09:09:58.400   35.639413795  139.295929571   218.9659   2  17   0.0057   0.0056   0.0205   0.0026   0.0061  -0.0082   0.21    2.3
2019/09/12 09:09:58.600   35.639413495  139.295927667   218.9488   1  17   0.0051   0.0039   0.0172   0.0027   0.0030  -0.0079   0.21    3.5
2019/09/12 09:09:58.800   35.639413410  139.295926029   218.9532   1  17   0.0050   0.0047   0.0173   0.0019   0.0027  -0.0077   0.41    4.5
2019/09/12 09:09:59.000   35.639413427  139.295924449   218.9579   1  17   0.0051   0.0046   0.0173   0.0019   0.0023  -0.0077   0.41    4.9
2019/09/12 09:09:59.200   35.639413939  139.295922697   218.9291   1  17   0.0057   0.0046   0.0173   0.0013   0.0026  -0.0076   0.21    5.2
2019/09/12 09:09:59.400   35.639414328  139.295921214   218.9505   2  17   0.0057   0.0053   0.0190   0.0023   0.0051  -0.0082   0.21    1.2
2019/09/12 09:09:59.600   35.639414599  139.295919743   218.9377   1  17   0.0055   0.0043   0.0173   0.0023   0.0027  -0.0077   0.21    5.9
2019/09/12 09:09:59.800   35.639414500  139.295918142   218.9444   2  17   0.0059   0.0050   0.0187   0.0026   0.0050  -0.0080   0.21    1.4
2019/09/12 09:10:00.000   35.639414505  139.295916355   218.9329   1  17   0.0058   0.0045   0.0172   0.0019   0.0025  -0.0076   0.21    6.6
2019/09/12 09:10:00.200   35.639414635  139.295914809   218.9358   1  17   0.0054   0.0045   0.0173   0.0022   0.0029  -0.0079   0.41    7.0
2019/09/12 09:10:00.400   35.639414745  139.295913052   218.9214   1  17   0.0054   0.0043   0.0173   0.0026   0.0030  -0.0078   0.41    7.3
2019/09/12 09:10:00.600   35.639415098  139.295911218   218.9464   1  17   0.0053   0.0043   0.0173   0.0026   0.0028  -0.0078   0.21    7.6
2019/09/12 09:10:00.800   35.639415073  139.295909547   218.9454   1  17   0.0050   0.0048   0.0174   0.0003   0.0027  -0.0078   0.21    8.0
2019/09/12 09:10:01.000   35.639414867  139.295907796   218.9320   1  17   0.0053   0.0044   0.0173   0.0006   0.0024  -0.0075   0.21    8.3
2019/09/12 09:10:01.200   35.639414374  139.295906157   218.9457   1  17   0.0055   0.0047   0.0173   0.0017   0.0028  -0.0078   0.41    8.6
2019/09/12 09:10:01.400   35.639414525  139.295904381   218.9550   1  17   0.0050   0.0043   0.0183   0.0023   0.0034  -0.0076   0.41    8.8
2019/09/12 09:10:01.600   35.639414886  139.295902524   218.9280   1  17   0.0054   0.0045   0.0174   0.0021   0.0030  -0.0078   0.61    9.2
2019/09/12 09:10:01.800   35.639415503  139.295900652   218.9397   1  17   0.0058   0.0045   0.0174   0.0012   0.0027  -0.0077   0.41    9.5
2019/09/12 09:10:02.000   35.639415633  139.295899079   218.9579   1  17   0.0052   0.0047   0.0173   0.0016   0.0025  -0.0076   0.21   11.8
2019/09/12 09:10:02.200   35.639415635  139.295897376   218.9396   1  17   0.0047   0.0046   0.0174   0.0021   0.0029  -0.0077   0.41   14.0
2019/09/12 09:10:02.400   35.639415367  139.295895308   218.9392   1  17   0.0053   0.0043   0.0173   0.0021   0.0025  -0.0077   0.41   16.3
2019/09/12 09:10:02.600   35.639415547  139.295893600   218.9539   1  17   0.0052   0.0046   0.0184   0.0021   0.0033  -0.0076   0.61   18.9
2019/09/12 09:10:02.800   35.639415776  139.295891897   218.9412   1  17   0.0053   0.0041   0.0173   0.0024   0.0029  -0.0078   0.41   20.8
2019/09/12 09:10:03.000   35.639416253  139.295890014   218.9330   1  17   0.0051   0.0042   0.0173   0.0018   0.0028  -0.0077   0.21   23.2
2019/09/12 09:10:03.200   35.639416610  139.295888357   218.9417   1  17   0.0050   0.0050   0.0174   0.0016   0.0026  -0.0077   0.41   25.6
2019/09/12 09:10:03.400   35.639416801  139.295886912   218.9466   1  17   0.0050   0.0046   0.0174   0.0018   0.0027  -0.0077   0.41   28.1
2019/09/12 09:10:03.600   35.639416665  139.295885278   218.9339   1  17   0.0055   0.0046   0.0173   0.0017   0.0028  -0.0076   0.21   30.5
2019/09/12 09:10:03.800   35.639416532  139.295883709   218.9559   1  17   0.0054   0.0044   0.0173   0.0025   0.0029  -0.0079   0.41   33.0
2019/09/12 09:10:04.000   35.639416700  139.295882100   218.9475   1  17   0.0058   0.0044   0.0174   0.0019   0.0029  -0.0077   0.41   35.3
2019/09/12 09:10:04.200   35.639417070  139.295880315   218.9225   1  17   0.0050   0.0042   0.0173   0.0019   0.0030  -0.0079   0.21   37.8
2019/09/12 09:10:04.400   35.639417413  139.295878299   218.9399   1  17   0.0053   0.0045   0.0173   0.0025   0.0028  -0.0079   0.41   40.2
2019/09/12 09:10:04.600   35.639417413  139.295876592   218.9367   1  17   0.0054   0.0045   0.0173   0.0026   0.0027  -0.0077   0.41   42.6
2019/09/12 09:10:04.800   35.639417220  139.295874618   218.9172   1  17   0.0055   0.0044   0.0173   0.0023   0.0029  -0.0077   0.21   44.9
2019/09/12 09:10:05.000   35.639417144  139.295872669   218.9482   1  17   0.0056   0.0046   0.0173   0.0012   0.0023  -0.0076   0.41   47.3
2019/09/12 09:10:05.200   35.639417434  139.295870922   218.9441   1  17   0.0053   0.0044   0.0175   0.0023   0.0025  -0.0078   0.41   49.8
2019/09/12 09:10:05.400   35.639417892  139.295868994   218.9220   1  17   0.0055   0.0043   0.0173   0.0019   0.0029  -0.0077   0.21   52.0
2019/09/12 09:10:05.600   35.639418328  139.295867126   218.9532   1  17   0.0057   0.0046   0.0173  -0.0013   0.0023  -0.0076   0.21   54.3
2019/09/12 09:10:05.800   35.639418461  139.295865515   218.9936   1  17   0.0058   0.0047   0.0183   0.0010   0.0033  -0.0075   0.21   59.6
2019/09/12 09:10:06.000   35.639418453  139.295863743   218.9645   1  17   0.0058   0.0043   0.0182   0.0022   0.0034  -0.0075   0.21   62.2
2019/09/12 09:10:06.200   35.639418328  139.295861851   218.9947   1  17   0.0055   0.0048   0.0182   0.0022   0.0034  -0.0076   0.21   64.6
2019/09/12 09:10:06.400   35.639418658  139.295859990   219.0099   1  15   0.0058   0.0055   0.0188   0.0025   0.0045  -0.0075   0.21   66.2
2019/09/12 09:10:06.600   35.639419146  139.295857869   218.9631   2  15   0.0060   0.0055   0.0190   0.0032   0.0050  -0.0076   0.21    1.3
2019/09/12 09:10:06.800   35.639419466  139.295855641   219.0116   2  16   0.0059   0.0046   0.0182   0.0030   0.0041  -0.0074   0.21    1.4
2019/09/12 09:10:07.000   35.639419501  139.295853556   218.9967   2  16   0.0056   0.0048   0.0181   0.0030   0.0038  -0.0075   0.21    1.6
2019/09/12 09:10:07.200   35.639419305  139.295851068   218.9571   2  14   0.0059   0.0060   0.0189   0.0030   0.0061  -0.0071   0.21    2.0
2019/09/12 09:10:07.400   35.639419341  139.295848352   219.0140   2  14   0.0066   0.0061   0.0189   0.0038   0.0068  -0.0066   0.21    1.7
2019/09/12 09:10:07.600   35.639419748  139.295845548   218.9693   2  13   0.0069   0.0091   0.0307  -0.0022   0.0141  -0.0105   0.41    1.8
2019/09/12 09:10:07.800   35.639420389  139.295842380   218.9935   2  13   0.0064   0.0086   0.0299  -0.0031   0.0135  -0.0111   0.21    2.6
2019/09/12 09:10:08.000   35.639420250  139.295839272   218.9714   2  13   0.0073   0.0089   0.0306  -0.0020   0.0141  -0.0104   0.21    2.8
2019/09/12 09:10:08.200   35.639419986  139.295835933   218.9594   2  13   0.0072   0.0089   0.0306  -0.0024   0.0141  -0.0104   0.21    2.9
2019/09/12 09:10:08.400   35.639420331  139.295832770   219.0094   1  13   0.0074   0.0089   0.0311  -0.0026   0.0144  -0.0108   0.21    6.5
2019/09/12 09:10:08.600   35.639420850  139.295829361   218.9667   1  13   0.0069   0.0088   0.0305  -0.0018   0.0141  -0.0104   0.21    3.0
2019/09/12 09:10:08.800   35.639420941  139.295825911   219.0129   1  13   0.0069   0.0088   0.0305  -0.0027   0.0140  -0.0103   0.21    3.1
2019/09/12 09:10:09.000   35.639420791  139.295822918   218.9738   1  13   0.0068   0.0088   0.0305  -0.0023   0.0141  -0.0103   0.21    3.2
2019/09/12 09:10:09.200   35.639420759  139.295819756   219.0149   1  13   0.0070   0.0087   0.0305  -0.0026   0.0141  -0.0103   0.21    3.3
2019/09/12 09:10:09.400   35.639421243  139.295816837   218.9759   2  13   0.0070   0.0089   0.0306  -0.0024   0.0141  -0.0103   0.21    1.4
2019/09/12 09:10:09.600   35.639421841  139.295813934   219.0049   1  13   0.0070   0.0087   0.0305  -0.0022   0.0141  -0.0103   0.21    3.8
2019/09/12 09:10:09.800   35.639421680  139.295811277   219.0006   2  14   0.0071   0.0088   0.0305  -0.0019   0.0141  -0.0104   0.21    1.4
2019/09/12 09:10:10.000   35.639421619  139.295808383   218.9595   2  14   0.0070   0.0077   0.0273  -0.0010   0.0117  -0.0097   0.21    1.8
2019/09/12 09:10:10.200   35.639421669  139.295805533   218.9934   2  14   0.0065   0.0071   0.0260   0.0007   0.0107  -0.0097   0.21    2.2
2019/09/12 09:10:10.400   35.639422107  139.295802879   218.9768   2  15   0.0066   0.0068   0.0253  -0.0013   0.0102  -0.0096   0.21    1.4
2019/09/12 09:10:10.600   35.639422714  139.295799755   218.9752   2  15   0.0065   0.0064   0.0230   0.0024   0.0080  -0.0088   0.41    1.7
2019/09/12 09:10:10.800   35.639422566  139.295797188   218.9897   2  16   0.0064   0.0062   0.0217   0.0025   0.0074  -0.0083   0.41    2.0
2019/09/12 09:10:11.000   35.639422441  139.295794521   218.9517   2  16   0.0060   0.0061   0.0212   0.0027   0.0066  -0.0081   0.21    2.5
2019/09/12 09:10:11.200   35.639422372  139.295791806   218.9780   2  17   0.0062   0.0059   0.0208   0.0027   0.0063  -0.0080   0.21    1.9
2019/09/12 09:10:11.400   35.639422797  139.295789441   218.9721   2  17   0.0060   0.0055   0.0205   0.0028   0.0063  -0.0082   0.21    2.7
2019/09/12 09:10:11.600   35.639423302  139.295786818   218.9501   2  17   0.0062   0.0058   0.0200  -0.0006   0.0059  -0.0077   0.21    2.3
2019/09/12 09:10:11.800   35.639423290  139.295784594   219.0055   2  16   0.0060   0.0053   0.0199   0.0029   0.0061  -0.0077   0.21    2.1
2019/09/12 09:10:12.000   35.639423188  139.295782234   218.9567   2  16   0.0059   0.0056   0.0196   0.0025   0.0057  -0.0076   0.21    1.9
2019/09/12 09:10:12.200   35.639423053  139.295779984   218.9822   2  17   0.0059   0.0050   0.0195   0.0018   0.0054  -0.0076   0.21    1.8
2019/09/12 09:10:12.400   35.639423309  139.295777648   218.9905   2  16   0.0067   0.0055   0.0191   0.0033   0.0059  -0.0072   0.21    2.4
2019/09/12 09:10:12.600   35.639423478  139.295775067   218.9788   2  15   0.0066   0.0060   0.0196   0.0032   0.0068  -0.0070   0.21    1.8
2019/09/12 09:10:12.800   35.639423519  139.295772556   219.0096   2  15   0.0066   0.0057   0.0195   0.0034   0.0068  -0.0070   0.21    2.6
2019/09/12 09:10:13.000   35.639423426  139.295770215   218.9693   2  16   0.0064   0.0056   0.0187   0.0028   0.0057  -0.0070   0.21    2.6
2019/09/12 09:10:13.200   35.639423206  139.295767649   218.9726   1  14   0.0068   0.0068   0.0262  -0.0012   0.0106  -0.0096   0.21    3.4
2019/09/12 09:10:13.400   35.639423280  139.295765170   219.0151   2  13   0.0069   0.0088   0.0305  -0.0020   0.0141  -0.0103   0.21    2.9
2019/09/12 09:10:13.600   35.639423608  139.295762646   218.9621   1  13   0.0065   0.0085   0.0299  -0.0032   0.0135  -0.0109   0.21    3.7
2019/09/12 09:10:13.800   35.639423827  139.295760124   219.0103   1  14   0.0070   0.0069   0.0262   0.0012   0.0106  -0.0097   0.21    4.9
2019/09/12 09:10:14.000   35.639423763  139.295757970   218.9938   2  14   0.0067   0.0067   0.0264  -0.0011   0.0108  -0.0100   0.21    3.0
2019/09/12 09:10:14.200   35.639423669  139.295755566   218.9772   1  13   0.0069   0.0087   0.0304  -0.0022   0.0141  -0.0103   0.21    4.9
2019/09/12 09:10:14.400   35.639423691  139.295753153   219.0046   2  13   0.0069   0.0087   0.0305  -0.0020   0.0141  -0.0104   0.21    3.0
2019/09/12 09:10:14.600   35.639423964  139.295750757   218.9664   2  14   0.0068   0.0086   0.0305  -0.0021   0.0141  -0.0103   0.21    1.2
2019/09/12 09:10:14.800   35.639424543  139.295748267   218.9804   2  14   0.0067   0.0074   0.0253   0.0022   0.0112  -0.0086   0.21    1.4
2019/09/12 09:10:15.000   35.639424470  139.295745898   219.0034   2  14   0.0067   0.0085   0.0301  -0.0026   0.0138  -0.0108   0.21    1.3
2019/09/12 09:10:15.200   35.639424473  139.295743401   218.9645   2  14   0.0065   0.0074   0.0270  -0.0014   0.0116  -0.0101   0.21    1.7
2019/09/12 09:10:15.400   35.639424204  139.295740791   219.0031   2  14   0.0067   0.0067   0.0259  -0.0010   0.0107  -0.0097   0.41    1.9
2019/09/12 09:10:15.600   35.639424391  139.295738352   218.9979   2  14   0.0068   0.0068   0.0253  -0.0021   0.0102  -0.0095   0.41    2.4
2019/09/12 09:10:15.800   35.639424549  139.295735722   218.9708   2  15   0.0068   0.0067   0.0249   0.0006   0.0100  -0.0095   0.21    1.6
2019/09/12 09:10:16.000   35.639424471  139.295733454   219.0081   2  16   0.0064   0.0062   0.0243   0.0009   0.0094  -0.0097   0.21    1.3
2019/09/12 09:10:16.200   35.639424225  139.295731186   218.9747   2  15   0.0064   0.0061   0.0241  -0.0019   0.0091  -0.0097   0.21    2.8
2019/09/12 09:10:16.400   35.639423863  139.295728672   218.9937   2  14   0.0066   0.0065   0.0265  -0.0027   0.0107  -0.0108   0.41    2.7
2019/09/12 09:10:16.600   35.639423988  139.295726390   218.9962   2  13   0.0069   0.0088   0.0311  -0.0025   0.0142  -0.0106   0.41    1.6
2019/09/12 09:10:16.800   35.639424168  139.295724025   218.9770   2  15   0.0067   0.0063   0.0229  -0.0011   0.0086  -0.0089   0.61    1.6
2019/09/12 09:10:17.000   35.639424569  139.295721578   219.0039   2  15   0.0065   0.0055   0.0216   0.0018   0.0079  -0.0084   0.41    1.9
2019/09/12 09:10:17.200   35.639424292  139.295719337   219.0016   2  14   0.0067   0.0068   0.0218   0.0028   0.0089  -0.0073   0.21    1.9
2019/09/12 09:10:17.400   35.639424253  139.295716799   218.9500   1  14   0.0070   0.0058   0.0255  -0.0029   0.0096  -0.0107   0.41    3.5
2019/09/12 09:10:17.600   35.639424381  139.295714568   219.0092   1  13   0.0071   0.0090   0.0311  -0.0029   0.0144  -0.0107   0.41    7.6
2019/09/12 09:10:17.800   35.639424841  139.295712224   218.9971   1  13   0.0071   0.0089   0.0311  -0.0027   0.0144  -0.0107   0.21    8.2
2019/09/12 09:10:18.000   35.639425519  139.295709391   218.9741   1  14   0.0071   0.0061   0.0259  -0.0029   0.0097  -0.0110   0.41    3.7
2019/09/12 09:10:18.200   35.639425584  139.295706724   218.9861   2  16   0.0069   0.0066   0.0265  -0.0034   0.0102  -0.0109   0.21    1.6
2019/09/12 09:10:18.400   35.639425705  139.295704193   218.9650   2  17   0.0072   0.0061   0.0258  -0.0023   0.0088  -0.0108   0.21    1.3
2019/09/12 09:10:18.600   35.639425735  139.295701787   218.9650   2  17   0.0066   0.0058   0.0229   0.0016   0.0072  -0.0095   0.41    1.7
2019/09/12 09:10:18.800   35.639426069  139.295699669   218.9900   2  17   0.0063   0.0054   0.0216   0.0018   0.0065  -0.0089   0.41    2.0
2019/09/12 09:10:19.000   35.639426354  139.295697407   218.9736   2  17   0.0056   0.0051   0.0210   0.0024   0.0062  -0.0087   0.21    2.3
2019/09/12 09:10:19.200   35.639426676  139.295695107   218.9918   2  17   0.0059   0.0054   0.0205   0.0013   0.0058  -0.0084   0.41    1.6
2019/09/12 09:10:19.400   35.639426473  139.295693180   218.9992   2  16   0.0060   0.0055   0.0203   0.0028   0.0059  -0.0081   0.41    1.6
2019/09/12 09:10:19.600   35.639426194  139.295690735   218.9758   2  16   0.0066   0.0055   0.0200   0.0029   0.0058  -0.0079   0.21    1.4
2019/09/12 09:10:19.800   35.639425960  139.295688468   219.0090   2  16   0.0060   0.0056   0.0199   0.0025   0.0056  -0.0079   0.21    1.7
2019/09/12 09:10:20.000   35.639426122  139.295686255   218.9890   2  16   0.0065   0.0057   0.0197   0.0032   0.0053  -0.0080   0.21    1.6
2019/09/12 09:10:20.200   35.639426268  139.295683628   218.9969   2  16   0.0064   0.0051   0.0192   0.0030   0.0058  -0.0076   0.21    1.7
2019/09/12 09:10:20.400   35.639425930  139.295681362   219.0220   2  16   0.0059   0.0054   0.0191   0.0026   0.0057  -0.0075   0.21    1.7
2019/09/12 09:10:20.600   35.639425506  139.295679238   218.9874   2  14   0.0071   0.0069   0.0269  -0.0018   0.0107  -0.0103   0.21    1.7
2019/09/12 09:10:20.800   35.639424793  139.295676623   218.9814   1  13   0.0071   0.0090   0.0310  -0.0025   0.0144  -0.0107   0.21    4.0
2019/09/12 09:10:21.000   35.639424557  139.295674201   219.0154   2  13   0.0070   0.0088   0.0310  -0.0023   0.0142  -0.0106   0.21    1.7
2019/09/12 09:10:21.200   35.639424605  139.295671663   218.9733   2  14   0.0070   0.0064   0.0243   0.0008   0.0092  -0.0094   0.21    1.7
2019/09/12 09:10:21.400   35.639424918  139.295669357   219.0000   2  14   0.0062   0.0067   0.0266  -0.0012   0.0107  -0.0103   0.21    1.3
2019/09/12 09:10:21.600   35.639424661  139.295667272   219.0104   2  15   0.0067   0.0063   0.0239   0.0003   0.0087  -0.0090   0.21    1.8
2019/09/12 09:10:21.800   35.639424472  139.295664948   218.9716   2  14   0.0069   0.0070   0.0269   0.0008   0.0109  -0.0100   0.21    1.8
2019/09/12 09:10:22.000   35.639424205  139.295662600   219.0031   2  13   0.0070   0.0087   0.0307  -0.0020   0.0142  -0.0105   0.21    1.6
2019/09/12 09:10:22.200   35.639424340  139.295660352   218.9973   2  13   0.0070   0.0087   0.0309  -0.0026   0.0142  -0.0104   0.21    1.8
2019/09/12 09:10:22.400   35.639424458  139.295657737   218.9821   2  15   0.0061   0.0071   0.0262  -0.0025   0.0105  -0.0099   0.41    1.2
2019/09/12 09:10:22.600   35.639424498  139.295655157   218.9907   2  16   0.0059   0.0058   0.0218   0.0016   0.0067  -0.0088   0.41    1.5
2019/09/12 09:10:22.800   35.639424089  139.295652835   218.9751   2  16   0.0057   0.0055   0.0206   0.0018   0.0060  -0.0081   0.21    1.8
2019/09/12 09:10:23.000   35.639423687  139.295650403   218.9800   2  16   0.0059   0.0052   0.0200   0.0021   0.0058  -0.0079   0.21    2.0
2019/09/12 09:10:23.200   35.639423418  139.295648212   219.0058   2  16   0.0059   0.0053   0.0199   0.0038   0.0055  -0.0081   0.21    1.8
2019/09/12 09:10:23.400   35.639423099  139.295646157   218.9730   2  16   0.0059   0.0053   0.0196   0.0028   0.0052  -0.0079   0.21    1.8
2019/09/12 09:10:23.600   35.639423030  139.295643826   218.9842   2  16   0.0056   0.0054   0.0195   0.0025   0.0051  -0.0077   0.21    2.8
2019/09/12 09:10:23.800   35.639422370  139.295641763   219.0126   2  15   0.0061   0.0059   0.0236   0.0007   0.0079  -0.0095   0.21    2.1
2019/09/12 09:10:24.000   35.639421718  139.295639678   218.9699   2  15   0.0060   0.0056   0.0237   0.0012   0.0080  -0.0095   0.41    2.2
2019/09/12 09:10:24.200   35.639420933  139.295637626   218.9987   2  14   0.0071   0.0073   0.0267  -0.0012   0.0101  -0.0104   0.41    1.5
2019/09/12 09:10:24.400   35.639420606  139.295635533   218.9956   2  13   0.0071   0.0089   0.0301  -0.0026   0.0137  -0.0109   0.21    2.0
2019/09/12 09:10:24.600   35.639420131  139.295633432   218.9609   2  13   0.0071   0.0092   0.0305  -0.0019   0.0141  -0.0103   0.21    2.4
2019/09/12 09:10:24.800   35.639419829  139.295631339   218.9872   2  12   0.0085   0.0111   0.0311   0.0051   0.0154  -0.0088   0.21    2.8
2019/09/12 09:10:25.000   35.639419242  139.295629480   218.9891   1  12   0.0080   0.0105   0.0310   0.0044   0.0153  -0.0089   0.21    3.1
2019/09/12 09:10:25.200   35.639418636  139.295627318   218.9586   1  12   0.0083   0.0106   0.0310   0.0042   0.0153  -0.0089   0.21    3.5
2019/09/12 09:10:25.400   35.639418101  139.295625179   219.0088   1  12   0.0083   0.0105   0.0310   0.0043   0.0153  -0.0089   0.41    3.6
2019/09/12 09:10:25.600   35.639417872  139.295622718   218.9608   1  12   0.0082   0.0105   0.0310   0.0045   0.0153  -0.0089   0.41    3.7
2019/09/12 09:10:25.800   35.639417703  139.295620203   218.9594   2  13   0.0083   0.0108   0.0311   0.0048   0.0154  -0.0089   0.21    1.4
2019/09/12 09:10:26.000   35.639417219  139.295617600   219.0092   2  13   0.0079   0.0100   0.0307   0.0032   0.0148  -0.0095   0.21    1.6
2019/09/12 09:10:26.200   35.639416693  139.295615108   218.9794   2  15   0.0072   0.0095   0.0301   0.0022   0.0143  -0.0098   0.21    1.4
2019/09/12 09:10:26.400   35.639416017  139.295612430   218.9738   2  16   0.0076   0.0088   0.0270   0.0035   0.0114  -0.0094   0.21    1.3
2019/09/12 09:10:26.600   35.639415839  139.295610100   218.9929   2  16   0.0066   0.0078   0.0236   0.0038   0.0094  -0.0084   0.21    1.6
2019/09/12 09:10:26.800   35.639415654  139.295607532   218.9558   2  17   0.0067   0.0073   0.0222   0.0035   0.0083  -0.0079   0.21    1.6
2019/09/12 09:10:27.000   35.639415509  139.295605021   218.9743   2  17   0.0061   0.0068   0.0213   0.0036   0.0077  -0.0078   0.21    2.0
2019/09/12 09:10:27.200   35.639414753  139.295603028   218.9820   2  17   0.0061   0.0066   0.0208   0.0028   0.0071  -0.0076   0.21    2.1
2019/09/12 09:10:27.400   35.639413942  139.295600578   218.9419   2  17   0.0064   0.0066   0.0209   0.0024   0.0071  -0.0077   0.21    1.7
2019/09/12 09:10:27.600   35.639413313  139.295598369   218.9859   2  17   0.0060   0.0057   0.0203   0.0034   0.0068  -0.0078   0.21    2.0
2019/09/12 09:10:27.800   35.639412912  139.295596124   218.9593   2  17   0.0059   0.0060   0.0200   0.0030   0.0066  -0.0077   0.21    2.4
2019/09/12 09:10:28.000   35.639412535  139.295593567   218.9330   1  17   0.0058   0.0049   0.0181  -0.0004   0.0030  -0.0072   0.21    3.3
2019/09/12 09:10:28.200   35.639411856  139.295591685   218.9813   2  17   0.0055   0.0055   0.0197   0.0028   0.0061  -0.0076   0.21    2.5
2019/09/12 09:10:28.400   35.639411168  139.295589704   218.9519   2  17   0.0054   0.0057   0.0195   0.0030   0.0058  -0.0076   0.41    2.6
2019/09/12 09:10:28.600   35.639410269  139.295587613   218.9614   2  17   0.0060   0.0057   0.0194   0.0029   0.0059  -0.0075   0.41    1.6
2019/09/12 09:10:28.800   35.639409861  139.295585673   218.9848   2  17   0.0059   0.0055   0.0195   0.0025   0.0056  -0.0076   0.21    1.7
2019/09/12 09:10:29.000   35.639409431  139.295583485   218.9508   2  17   0.0058   0.0057   0.0195   0.0024   0.0053  -0.0075   0.21    1.7
2019/09/12 09:10:29.200   35.639409038  139.295580994   218.9482   1  17   0.0057   0.0046   0.0182   0.0023   0.0035  -0.0075   0.21    4.8
2019/09/12 09:10:29.400   35.639408226  139.295579313   218.9930   2  17   0.0054   0.0055   0.0193   0.0024   0.0052  -0.0076   0.21    1.7
2019/09/12 09:10:29.600   35.639407450  139.295577258   218.9488   2  17   0.0058   0.0057   0.0193   0.0028   0.0053  -0.0076   0.41    1.7
2019/09/12 09:10:29.800   35.639406635  139.295575136   218.9751   2  17   0.0058   0.0054   0.0192   0.0026   0.0053  -0.0075   0.41    1.7
2019/09/12 09:10:30.000   35.639406258  139.295573100   218.9779   2  17   0.0057   0.0052   0.0191   0.0022   0.0051  -0.0075   0.21    1.7
2019/09/12 09:10:30.200   35.639405897  139.295570931   218.9534   2  17   0.0056   0.0050   0.0191   0.0032   0.0053  -0.0078   0.21    1.7
2019/09/12 09:10:30.400   35.639405481  139.295568691   218.9803   2  17   0.0059   0.0054   0.0191   0.0025   0.0049  -0.0074   0.21    1.7
2019/09/12 09:10:30.600   35.639404726  139.295566837   218.9932   2  17   0.0056   0.0051   0.0190   0.0028   0.0049  -0.0075   0.41    1.7
2019/09/12 09:10:30.800   35.639403916  139.295564624   218.9538   2  17   0.0056   0.0048   0.0190   0.0032   0.0051  -0.0076   0.41    1.7
2019/09/12 09:10:31.000   35.639403273  139.295562571   218.9981   2  17   0.0057   0.0054   0.0191   0.0028   0.0049  -0.0076   0.61    1.7
2019/09/12 09:10:31.200   35.639402865  139.295560518   218.9863   2  17   0.0055   0.0055   0.0190   0.0020   0.0048  -0.0076   0.41    1.7
2019/09/12 09:10:31.400   35.639402499  139.295558139   218.9741   2  17   0.0055   0.0048   0.0189   0.0026   0.0048  -0.0076   0.21    1.7
2019/09/12 09:10:31.600   35.639401885  139.295556201   219.0094   2  17   0.0055   0.0055   0.0190   0.0013   0.0048  -0.0076   0.41    1.7
2019/09/12 09:10:31.800   35.639401139  139.295554336   218.9859   2  17   0.0056   0.0053   0.0189   0.0028   0.0050  -0.0077   0.41    1.7
2019/09/12 09:10:32.000   35.639400213  139.295552355   218.9887   2  17   0.0057   0.0049   0.0189   0.0026   0.0048  -0.0075   0.21    1.7
2019/09/12 09:10:32.200   35.639399714  139.295550406   219.0169   2  16   0.0066   0.0055   0.0189   0.0039   0.0049  -0.0077   0.41    1.7
2019/09/12 09:10:32.400   35.639399292  139.295548160   218.9830   2  16   0.0056   0.0053   0.0188   0.0030   0.0047  -0.0074   0.41    1.7
2019/09/12 09:10:32.600   35.639398883  139.295545631   219.0109   2  16   0.0066   0.0057   0.0188   0.0035   0.0045  -0.0075   0.21    1.3
2019/09/12 09:10:32.800   35.639398132  139.295543868   219.0204   2  16   0.0064   0.0058   0.0187   0.0037   0.0047  -0.0075   0.41    1.5
2019/09/12 09:10:33.000   35.639397267  139.295542122   218.9773   2  16   0.0065   0.0057   0.0187   0.0037   0.0050  -0.0075   0.41    1.8
2019/09/12 09:10:33.200   35.639396330  139.295540494   219.0145   2  16   0.0062   0.0055   0.0185   0.0040   0.0047  -0.0075   0.21    1.4
2019/09/12 09:10:33.400   35.639395803  139.295538512   219.0181   2  16   0.0063   0.0057   0.0183   0.0036   0.0049  -0.0076   0.41    1.8
2019/09/12 09:10:33.600   35.639395117  139.295536409   218.9767   2  15   0.0065   0.0062   0.0188   0.0034   0.0057  -0.0075   0.41    2.1
2019/09/12 09:10:33.800   35.639394356  139.295534416   219.0189   2  14   0.0069   0.0070   0.0191   0.0043   0.0068  -0.0071   0.21    2.2
2019/09/12 09:10:34.000   35.639393272  139.295532720   219.0154   2  15   0.0062   0.0059   0.0181   0.0039   0.0051  -0.0075   0.21    2.2
